{"ZW":{"lat":-18.9116,"lon":29.9254,"name":"Zimbabwe","continent":"Africa"},"ZM":{"lat":-14.6608,"lon":26.3953,"name":"Zambia","continent":"Africa"},"YE":{"lat":15.3282,"lon":45.8744,"name":"Yemen","continent":"Asia"},"VN":{"lat":21.7154,"lon":105.3873,"name":"Vietnam","continent":"Asia"},"VE":{"lat":7.1825,"lon":-64.5994,"name":"Venezuela","continent":"South America"},"VA":{"lat":41.9033,"lon":12.4534,"name":"Vatican City","continent":"Europe"},"VU":{"lat":-15.3715,"lon":166.9088,"name":"Vanuatu","continent":"Oceania"},"UZ":{"lat":41.6936,"lon":64.0054,"name":"Uzbekistan","continent":"Asia"},"UY":{"lat":-32.9611,"lon":-55.9669,"name":"Uruguay","continent":"South America"},"FM":{"lat":6.8876,"lon":158.234,"name":"Federated States of Micronesia","continent":"Oceania"},"MH":{"lat":7.0826,"lon":171.1936,"name":"Marshall Islands","continent":"Oceania"},"MP":{"lat":15.1882,"lon":145.7344,"name":"Northern Mariana Islands","continent":"Oceania"},"VI":{"lat":17.7467,"lon":-64.7792,"name":"United States Virgin Islands","continent":"North America"},"GU":{"lat":13.3542,"lon":144.7036,"name":"Guam","continent":"Oceania"},"AS":{"lat":-14.3267,"lon":-170.7472,"name":"American Samoa","continent":"Oceania"},"PR":{"lat":18.2347,"lon":-66.4811,"name":"Puerto Rico","continent":"North America"},"US":{"lat":39.5385,"lon":-97.4826,"name":"United States of America","continent":"North America"},"GS":{"lat":-55.6834,"lon":-31.0632,"name":"South Georgia and the South Sandwich Islands","continent":"Seven seas (open ocean)"},"IO":{"lat":-6.1908,"lon":71.3483,"name":"British Indian Ocean Territory","continent":"Seven seas (open ocean)"},"SH":{"lat":-15.9505,"lon":-5.7126,"name":"Saint Helena","continent":"Seven seas (open ocean)"},"PN":{"lat":-24.3646,"lon":-128.3175,"name":"Pitcairn Islands","continent":"Oceania"},"AI":{"lat":18.243,"lon":-63.0264,"name":"Anguilla","continent":"North America"},"FK":{"lat":-51.6089,"lon":-58.7386,"name":"Falkland Islands","continent":"South America"},"KY":{"lat":19.3199,"lon":-81.2405,"name":"Cayman Islands","continent":"North America"},"BM":{"lat":32.2966,"lon":-64.7636,"name":"Bermuda","continent":"North America"},"VG":{"lat":18.4266,"lon":-64.6366,"name":"British Virgin Islands","continent":"North America"},"TC":{"lat":21.8166,"lon":-71.7527,"name":"Turks and Caicos Islands","continent":"North America"},"MS":{"lat":16.7372,"lon":-62.1883,"name":"Montserrat","continent":"North America"},"JE":{"lat":49.2208,"lon":-2.0901,"name":"Jersey","continent":"Europe"},"GG":{"lat":49.4635,"lon":-2.5617,"name":"Guernsey","continent":"Europe"},"IM":{"lat":54.2208,"lon":-4.5301,"name":"Isle of Man","continent":"Europe"},"GB":{"lat":54.4027,"lon":-2.1163,"name":"United Kingdom","continent":"Europe"},"AE":{"lat":23.4663,"lon":54.5473,"name":"United Arab Emirates","continent":"Asia"},"UA":{"lat":49.7247,"lon":32.1409,"name":"Ukraine","continent":"Europe"},"UG":{"lat":1.9726,"lon":32.9486,"name":"Uganda","continent":"Africa"},"TM":{"lat":39.8552,"lon":58.6766,"name":"Turkmenistan","continent":"Asia"},"TR":{"lat":39.3454,"lon":34.5083,"name":"Turkey","continent":"Asia"},"TN":{"lat":33.6873,"lon":9.0079,"name":"Tunisia","continent":"Africa"},"TT":{"lat":10.9989,"lon":-60.9184,"name":"Trinidad and Tobago","continent":"North America"},"TO":{"lat":-21.21,"lon":-175.163,"name":"Tonga","continent":"Oceania"},"TG":{"lat":8.8072,"lon":1.0581,"name":"Togo","continent":"Africa"},"TL":{"lat":-8.8037,"lon":125.8547,"name":"East Timor","continent":"Asia"},"TH":{"lat":15.4597,"lon":101.0732,"name":"Thailand","continent":"Asia"},"TZ":{"lat":-6.0519,"lon":34.9592,"name":"Tanzania","continent":"Africa"},"TJ":{"lat":38.1998,"lon":72.5873,"name":"Tajikistan","continent":"Asia"},"CN-TW":{"lat":23.6524,"lon":120.8682,"name":"Taiwan","continent":"Asia"},"SY":{"lat":35.0066,"lon":38.2778,"name":"Syria","continent":"Asia"},"CH":{"lat":46.7191,"lon":7.464,"name":"Switzerland","continent":"Europe"},"SE":{"lat":65.8592,"lon":19.0171,"name":"Sweden","continent":"Europe"},"SZ":{"lat":-26.5337,"lon":31.4673,"name":"Eswatini","continent":"Africa"},"SR":{"lat":4.144,"lon":-55.9109,"name":"Suriname","continent":"South America"},"SS":{"lat":7.2305,"lon":30.3902,"name":"South Sudan","continent":"Africa"},"SD":{"lat":16.3307,"lon":29.2607,"name":"Sudan","continent":"Africa"},"LK":{"lat":7.5811,"lon":80.7048,"name":"Sri Lanka","continent":"Asia"},"ES":{"lat":40.091,"lon":-3.4647,"name":"Spain","continent":"Europe"},"KR":{"lat":36.3849,"lon":128.1295,"name":"South Korea","continent":"Asia"},"ZA":{"lat":-29.7088,"lon":23.6657,"name":"South Africa","continent":"Africa"},"SO":{"lat":3.5689,"lon":45.1924,"name":"Somalia","continent":"Africa"},"SB":{"lat":-8.0295,"lon":159.1705,"name":"Solomon Islands","continent":"Oceania"},"SK":{"lat":48.734,"lon":19.0499,"name":"Slovakia","continent":"Europe"},"SI":{"lat":46.0608,"lon":14.9153,"name":"Slovenia","continent":"Europe"},"SG":{"lat":1.3666,"lon":103.8169,"name":"Singapore","continent":"Asia"},"SL":{"lat":8.6174,"lon":-11.7637,"name":"Sierra Leone","continent":"Africa"},"SC":{"lat":-4.6767,"lon":55.4802,"name":"Seychelles","continent":"Seven seas (open ocean)"},"RS":{"lat":44.1899,"lon":20.788,"name":"Serbia","continent":"Europe"},"SN":{"lat":15.1381,"lon":-14.7786,"name":"Senegal","continent":"Africa"},"SA":{"lat":23.8069,"lon":44.6996,"name":"Saudi Arabia","continent":"Asia"},"ST":{"lat":0.9709,"lon":7.021,"name":"S\u00e3o Tom\u00e9 and Pr\u00edncipe","continent":"Africa"},"SM":{"lat":43.9339,"lon":12.4412,"name":"San Marino","continent":"Europe"},"WS":{"lat":-13.6391,"lon":-172.4382,"name":"Samoa","continent":"Oceania"},"VC":{"lat":13.0879,"lon":-61.3359,"name":"Saint Vincent and the Grenadines","continent":"North America"},"LC":{"lat":13.8924,"lon":-60.9801,"name":"Saint Lucia","continent":"North America"},"KN":{"lat":17.3366,"lon":-62.758,"name":"Saint Kitts and Nevis","continent":"North America"},"RW":{"lat":-1.8972,"lon":30.1039,"name":"Rwanda","continent":"Africa"},"RU":{"lat":58.2494,"lon":44.6865,"name":"Russia","continent":"Europe"},"RO":{"lat":45.7332,"lon":24.9726,"name":"Romania","continent":"Europe"},"QA":{"lat":25.2374,"lon":51.1435,"name":"Qatar","continent":"Asia"},"PT":{"lat":39.6067,"lon":-8.2718,"name":"Portugal","continent":"Europe"},"PL":{"lat":51.9903,"lon":19.4905,"name":"Poland","continent":"Europe"},"PH":{"lat":11.198,"lon":122.465,"name":"Philippines","continent":"Asia"},"PE":{"lat":-12.9767,"lon":-72.9002,"name":"Peru","continent":"South America"},"PY":{"lat":-21.6745,"lon":-60.1464,"name":"Paraguay","continent":"South America"},"PG":{"lat":-5.6953,"lon":143.9102,"name":"Papua New Guinea","continent":"Oceania"},"PA":{"lat":8.722,"lon":-80.3521,"name":"Panama","continent":"North America"},"PW":{"lat":7.5183,"lon":134.5802,"name":"Palau","continent":"Oceania"},"PK":{"lat":29.3284,"lon":68.5456,"name":"Pakistan","continent":"Asia"},"OM":{"lat":22.1204,"lon":57.3366,"name":"Oman","continent":"Asia"},"KP":{"lat":39.8853,"lon":126.4445,"name":"North Korea","continent":"Asia"},"NG":{"lat":9.4398,"lon":7.5032,"name":"Nigeria","continent":"Africa"},"NE":{"lat":17.4462,"lon":9.5044,"name":"Niger","continent":"Africa"},"NI":{"lat":12.6707,"lon":-85.0693,"name":"Nicaragua","continent":"North America"},"NZ":{"lat":-39.759,"lon":172.787,"name":"New Zealand","continent":"Oceania"},"NU":{"lat":-19.046,"lon":-169.8626,"name":"Niue","continent":"Oceania"},"CK":{"lat":-21.216,"lon":-159.7857,"name":"Cook Islands","continent":"Oceania"},"NL":{"lat":52.4222,"lon":5.6114,"name":"Netherlands","continent":"Europe"},"AW":{"lat":12.5174,"lon":-69.9728,"name":"Aruba","continent":"North America"},"CW":{"lat":12.145,"lon":-68.9206,"name":"Cura\u00e7ao","continent":"North America"},"NP":{"lat":28.2979,"lon":83.6399,"name":"Nepal","continent":"Asia"},"NR":{"lat":-0.5203,"lon":166.9326,"name":"Nauru","continent":"Oceania"},"NA":{"lat":-20.5753,"lon":17.1082,"name":"Namibia","continent":"Africa"},"MZ":{"lat":-13.9432,"lon":37.8379,"name":"Mozambique","continent":"Africa"},"MA":{"lat":31.6507,"lon":-7.1873,"name":"Morocco","continent":"Africa"},"EH":{"lat":23.9676,"lon":-12.6303,"name":"Western Sahara","continent":"Africa"},"ME":{"lat":42.8031,"lon":19.1437,"name":"Montenegro","continent":"Europe"},"MN":{"lat":45.9975,"lon":104.1504,"name":"Mongolia","continent":"Asia"},"MD":{"lat":47.435,"lon":28.4879,"name":"Moldova","continent":"Europe"},"MC":{"lat":43.7397,"lon":7.3983,"name":"Monaco","continent":"Europe"},"MX":{"lat":23.92,"lon":-102.2894,"name":"Mexico","continent":"North America"},"MU":{"lat":-20.2995,"lon":57.5658,"name":"Mauritius","continent":"Seven seas (open ocean)"},"MR":{"lat":19.5871,"lon":-9.7403,"name":"Mauritania","continent":"Africa"},"MT":{"lat":35.8929,"lon":14.433,"name":"Malta","continent":"Europe"},"ML":{"lat":18.6927,"lon":-2.0385,"name":"Mali","continent":"Africa"},"MV":{"lat":4.1744,"lon":73.5076,"name":"Maldives","continent":"Seven seas (open ocean)"},"MY":{"lat":2.5287,"lon":113.8371,"name":"Malaysia","continent":"Asia"},"MW":{"lat":-13.3867,"lon":33.6081,"name":"Malawi","continent":"Africa"},"MG":{"lat":-18.6283,"lon":46.7042,"name":"Madagascar","continent":"Africa"},"MK":{"lat":41.5582,"lon":21.5558,"name":"North Macedonia","continent":"Europe"},"LU":{"lat":49.7337,"lon":6.0776,"name":"Luxembourg","continent":"Europe"},"LT":{"lat":55.1037,"lon":24.0899,"name":"Lithuania","continent":"Europe"},"LI":{"lat":47.1114,"lon":9.5594,"name":"Liechtenstein","continent":"Europe"},"LY":{"lat":26.6389,"lon":18.011,"name":"Libya","continent":"Africa"},"LR":{"lat":6.4472,"lon":-9.4604,"name":"Liberia","continent":"Africa"},"LS":{"lat":-29.4802,"lon":28.2466,"name":"Lesotho","continent":"Africa"},"LB":{"lat":34.1334,"lon":35.9929,"name":"Lebanon","continent":"Asia"},"LV":{"lat":57.0669,"lon":25.4587,"name":"Latvia","continent":"Europe"},"LA":{"lat":19.4318,"lon":102.5339,"name":"Laos","continent":"Asia"},"KG":{"lat":41.6685,"lon":74.5326,"name":"Kyrgyzstan","continent":"Asia"},"KW":{"lat":29.4136,"lon":47.314,"name":"Kuwait","continent":"Asia"},"KI":{"lat":1.8204,"lon":-157.3846,"name":"Kiribati","continent":"Oceania"},"KE":{"lat":0.549,"lon":37.9076,"name":"Kenya","continent":"Africa"},"KZ":{"lat":49.0541,"lon":68.6855,"name":"Kazakhstan","continent":"Asia"},"JO":{"lat":30.805,"lon":36.376,"name":"Jordan","continent":"Asia"},"JP":{"lat":36.1425,"lon":138.4422,"name":"Japan","continent":"Asia"},"JM":{"lat":18.1371,"lon":-77.3188,"name":"Jamaica","continent":"North America"},"IT":{"lat":44.7325,"lon":11.0769,"name":"Italy","continent":"Europe"},"IL":{"lat":30.9111,"lon":34.8479,"name":"Israel","continent":"Asia"},"PS":{"lat":32.0474,"lon":35.2913,"name":"Palestine","continent":"Asia"},"IE":{"lat":53.0787,"lon":-7.7986,"name":"Ireland","continent":"Europe"},"IQ":{"lat":33.094,"lon":43.2618,"name":"Iraq","continent":"Asia"},"IR":{"lat":32.1662,"lon":54.9315,"name":"Iran","continent":"Asia"},"ID":{"lat":-0.9544,"lon":101.8929,"name":"Indonesia","continent":"Asia"},"IN":{"lat":22.6869,"lon":79.3581,"name":"India","continent":"Asia"},"IS":{"lat":64.7793,"lon":-18.6737,"name":"Iceland","continent":"Europe"},"HU":{"lat":47.0868,"lon":19.4479,"name":"Hungary","continent":"Europe"},"HN":{"lat":14.7948,"lon":-86.8876,"name":"Honduras","continent":"North America"},"HT":{"lat":19.2638,"lon":-72.2241,"name":"Haiti","continent":"North America"},"GY":{"lat":5.1243,"lon":-58.9426,"name":"Guyana","continent":"South America"},"GW":{"lat":12.1637,"lon":-14.5241,"name":"Guinea-Bissau","continent":"Africa"},"GN":{"lat":10.6185,"lon":-10.0164,"name":"Guinea","continent":"Africa"},"GT":{"lat":14.9821,"lon":-90.4971,"name":"Guatemala","continent":"North America"},"GD":{"lat":12.1132,"lon":-61.6805,"name":"Grenada","continent":"North America"},"GR":{"lat":39.4928,"lon":21.7257,"name":"Greece","continent":"Europe"},"GH":{"lat":7.7176,"lon":-1.0369,"name":"Ghana","continent":"Africa"},"DE":{"lat":50.9617,"lon":9.6783,"name":"Germany","continent":"Europe"},"GE":{"lat":41.8701,"lon":43.7357,"name":"Georgia","continent":"Asia"},"GM":{"lat":13.6417,"lon":-14.9983,"name":"The Gambia","continent":"Africa"},"GA":{"lat":-0.4377,"lon":11.8359,"name":"Gabon","continent":"Africa"},"PM":{"lat":47.0403,"lon":-56.3324,"name":"Saint Pierre and Miquelon","continent":"North America"},"WF":{"lat":-14.2864,"lon":-178.1374,"name":"Wallis and Futuna","continent":"Oceania"},"MF":{"lat":18.0813,"lon":-63.0494,"name":"Saint Martin","continent":"North America"},"BL":{"lat":17.902,"lon":-62.8332,"name":"Saint Barth\u00e9lemy","continent":"North America"},"PF":{"lat":-17.6281,"lon":-149.4616,"name":"French Polynesia","continent":"Oceania"},"NC":{"lat":-21.0647,"lon":165.084,"name":"New Caledonia","continent":"Oceania"},"TF":{"lat":-49.3037,"lon":69.1221,"name":"French Southern and Antarctic Lands","continent":"Seven seas (open ocean)"},"AX":{"lat":60.1565,"lon":19.8697,"name":"\u00c5land","continent":"Europe"},"FI":{"lat":63.2524,"lon":27.2764,"name":"Finland","continent":"Europe"},"FJ":{"lat":-17.8261,"lon":177.9754,"name":"Fiji","continent":"Oceania"},"ET":{"lat":8.0328,"lon":39.0886,"name":"Ethiopia","continent":"Africa"},"EE":{"lat":58.7249,"lon":25.8671,"name":"Estonia","continent":"Europe"},"ER":{"lat":15.7874,"lon":38.2856,"name":"Eritrea","continent":"Africa"},"GQ":{"lat":2.333,"lon":8.9902,"name":"Equatorial Guinea","continent":"Africa"},"SV":{"lat":13.6854,"lon":-88.8901,"name":"El Salvador","continent":"North America"},"EG":{"lat":26.1862,"lon":29.4458,"name":"Egypt","continent":"Africa"},"EC":{"lat":-1.2591,"lon":-78.1884,"name":"Ecuador","continent":"South America"},"DO":{"lat":19.1041,"lon":-70.654,"name":"Dominican Republic","continent":"North America"},"DM":{"lat":15.4588,"lon":-61.345,"name":"Dominica","continent":"North America"},"DJ":{"lat":11.9763,"lon":42.4988,"name":"Djibouti","continent":"Africa"},"GL":{"lat":74.3194,"lon":-39.3353,"name":"Greenland","continent":"North America"},"FO":{"lat":62.1856,"lon":-7.0584,"name":"Faroe Islands","continent":"Europe"},"DK":{"lat":55.967,"lon":9.0182,"name":"Denmark","continent":"Europe"},"CZ":{"lat":49.8824,"lon":15.3776,"name":"Czech Republic","continent":"Europe"},"CY":{"lat":34.9133,"lon":33.0842,"name":"Cyprus","continent":"Asia"},"CU":{"lat":21.334,"lon":-77.9759,"name":"Cuba","continent":"North America"},"HR":{"lat":45.8058,"lon":16.3724,"name":"Croatia","continent":"Europe"},"CI":{"lat":7.4914,"lon":-5.5686,"name":"Ivory Coast","continent":"Africa"},"CR":{"lat":10.0651,"lon":-84.0779,"name":"Costa Rica","continent":"North America"},"CD":{"lat":-1.8582,"lon":23.4588,"name":"Democratic Republic of the Congo","continent":"Africa"},"CG":{"lat":0.1423,"lon":15.9005,"name":"Republic of the Congo","continent":"Africa"},"KM":{"lat":-11.7277,"lon":43.3181,"name":"Comoros","continent":"Africa"},"CO":{"lat":3.3731,"lon":-73.1743,"name":"Colombia","continent":"South America"},"CN":{"lat":32.4982,"lon":106.3373,"name":"People's Republic of China","continent":"Asia"},"MO":{"lat":22.1297,"lon":113.556,"name":"Macau","continent":"Asia"},"HK":{"lat":22.4488,"lon":114.0978,"name":"Hong Kong","continent":"Asia"},"CL":{"lat":-38.1518,"lon":-72.3189,"name":"Chile","continent":"South America"},"TD":{"lat":15.143,"lon":18.645,"name":"Chad","continent":"Africa"},"CF":{"lat":6.9897,"lon":20.9069,"name":"Central African Republic","continent":"Africa"},"CV":{"lat":15.0748,"lon":-23.6394,"name":"Cape Verde","continent":"Africa"},"CA":{"lat":60.3243,"lon":-101.9107,"name":"Canada","continent":"North America"},"CM":{"lat":4.585,"lon":12.4735,"name":"Cameroon","continent":"Africa"},"KH":{"lat":12.6476,"lon":104.5049,"name":"Cambodia","continent":"Asia"},"MM":{"lat":21.5739,"lon":95.8045,"name":"Myanmar","continent":"Asia"},"BI":{"lat":-3.3328,"lon":29.9171,"name":"Burundi","continent":"Africa"},"BF":{"lat":12.673,"lon":-1.3639,"name":"Burkina Faso","continent":"Africa"},"BG":{"lat":42.5088,"lon":25.1571,"name":"Bulgaria","continent":"Europe"},"BN":{"lat":4.4483,"lon":114.5519,"name":"Brunei","continent":"Asia"},"BR":{"lat":-12.0987,"lon":-49.5594,"name":"Brazil","continent":"South America"},"BW":{"lat":-22.1026,"lon":24.1792,"name":"Botswana","continent":"Africa"},"BA":{"lat":44.0911,"lon":18.0684,"name":"Bosnia and Herzegovina","continent":"Europe"},"BO":{"lat":-16.666,"lon":-64.5934,"name":"Bolivia","continent":"South America"},"BT":{"lat":27.5367,"lon":90.0403,"name":"Bhutan","continent":"Asia"},"BJ":{"lat":10.3248,"lon":2.352,"name":"Benin","continent":"Africa"},"BZ":{"lat":17.2021,"lon":-88.713,"name":"Belize","continent":"North America"},"BE":{"lat":50.7854,"lon":4.8004,"name":"Belgium","continent":"Europe"},"BY":{"lat":53.8219,"lon":28.4177,"name":"Belarus","continent":"Europe"},"BB":{"lat":13.1637,"lon":-59.569,"name":"Barbados","continent":"North America"},"BD":{"lat":24.215,"lon":89.685,"name":"Bangladesh","continent":"Asia"},"BH":{"lat":26.056,"lon":50.5548,"name":"Bahrain","continent":"Asia"},"BS":{"lat":26.4018,"lon":-77.1467,"name":"The Bahamas","continent":"North America"},"AZ":{"lat":40.4024,"lon":47.211,"name":"Azerbaijan","continent":"Asia"},"AT":{"lat":47.5189,"lon":14.1305,"name":"Austria","continent":"Europe"},"AU":{"lat":-24.1295,"lon":134.0497,"name":"Australia","continent":"Oceania"},"HM":{"lat":-53.1035,"lon":73.5052,"name":"Heard Island and McDonald Islands","continent":"Seven seas (open ocean)"},"NF":{"lat":-29.033,"lon":167.9545,"name":"Norfolk Island","continent":"Oceania"},"AM":{"lat":40.4591,"lon":44.8006,"name":"Armenia","continent":"Asia"},"AR":{"lat":-33.5012,"lon":-64.1733,"name":"Argentina","continent":"South America"},"AG":{"lat":17.3522,"lon":-61.7906,"name":"Antigua and Barbuda","continent":"North America"},"AO":{"lat":-12.1828,"lon":17.9842,"name":"Angola","continent":"Africa"},"AD":{"lat":42.5476,"lon":1.5394,"name":"Andorra","continent":"Europe"},"DZ":{"lat":27.3974,"lon":2.8082,"name":"Algeria","continent":"Africa"},"AL":{"lat":40.6549,"lon":20.1138,"name":"Albania","continent":"Europe"},"AF":{"lat":34.1643,"lon":66.4966,"name":"Afghanistan","continent":"Asia"},"AQ":{"lat":-79.8432,"lon":35.8855,"name":"Antarctica","continent":"Antarctica"},"SX":{"lat":18.0409,"lon":-63.0701,"name":"Sint Maarten","continent":"North America"},"TV":{"lat":-8.5137,"lon":179.2096,"name":"Tuvalu","continent":"Oceania"}}