{"OCA":{"name":"Ocean Reef Club Airport","city":"Key Largo","lat":25.3254,"lon":-80.2748},"WKK":{"name":"Aleknagik / New Airport","city":"Aleknagik","lat":59.2826,"lon":-158.618},"BLD":{"name":"Boulder City Municipal Airport","city":"Boulder City","lat":35.9472,"lon":-114.8588},"MFH":{"name":"Mesquite Airport","city":"Mesquite","lat":36.8331,"lon":-114.0559},"ABE":{"name":"Lehigh Valley International Airport","city":"Allentown/Bethlehem","lat":40.6518,"lon":-75.4428},"ABI":{"name":"Abilene Regional Airport","city":"Abilene","lat":32.4113,"lon":-99.6819},"ABQ":{"name":"Albuquerque International Sunport","city":"Albuquerque","lat":35.04,"lon":-106.6089},"ABR":{"name":"Aberdeen Regional Airport","city":"Aberdeen","lat":45.4491,"lon":-98.4218},"ABY":{"name":"Southwest Georgia Regional Airport","city":"Albany","lat":31.5329,"lon":-84.1962},"ACK":{"name":"Nantucket Memorial Airport","city":"Nantucket","lat":41.2531,"lon":-70.0602},"ACT":{"name":"Waco Regional Airport","city":"Waco","lat":31.6113,"lon":-97.2305},"ACV":{"name":"California Redwood Coast-Humboldt County Airport","city":"Arcata/Eureka","lat":40.9781,"lon":-124.109},"ACY":{"name":"Atlantic City International Airport","city":"Atlantic City","lat":39.4562,"lon":-74.5775},"ADT":{"name":"Ada Regional Airport","city":"Ada","lat":34.8052,"lon":-96.672},"ADW":{"name":"Joint Base Andrews","city":"Camp Springs","lat":38.8108,"lon":-76.867},"AEX":{"name":"Alexandria International Airport","city":"Alexandria","lat":31.3258,"lon":-92.5467},"AFW":{"name":"Perot Field/Fort Worth Alliance Airport","city":"Fort Worth","lat":32.9904,"lon":-97.3195},"AGC":{"name":"Allegheny County Airport","city":"Pittsburgh","lat":40.3544,"lon":-79.9302},"AGS":{"name":"Augusta Regional At Bush Field","city":"Augusta","lat":33.3699,"lon":-81.9645},"AHN":{"name":"Athens Ben Epps Airport","city":"Athens","lat":33.9488,"lon":-83.3256},"AIA":{"name":"Alliance Municipal Airport","city":"Alliance","lat":42.0525,"lon":-102.804},"AKC":{"name":"Akron Fulton International Airport","city":"Akron","lat":41.0374,"lon":-81.4678},"ALB":{"name":"Albany International Airport","city":"Albany","lat":42.7483,"lon":-73.8017},"ALI":{"name":"Alice International Airport","city":"Alice","lat":27.7409,"lon":-98.0269},"ALM":{"name":"Alamogordo White Sands Regional Airport","city":"Alamogordo","lat":32.8378,"lon":-105.9931},"ALN":{"name":"St Louis Regional Airport","city":"Alton/St Louis","lat":38.8903,"lon":-90.046},"ALO":{"name":"Waterloo Regional Airport","city":"Waterloo","lat":42.5571,"lon":-92.4003},"ALS":{"name":"San Luis Valley Regional Airport/Bergman Field","city":"Alamosa","lat":37.4349,"lon":-105.867},"ALW":{"name":"Walla Walla Regional Airport","city":"Walla Walla","lat":46.0949,"lon":-118.288},"AMA":{"name":"Rick Husband Amarillo International Airport","city":"Amarillo","lat":35.2179,"lon":-101.7064},"ANB":{"name":"Anniston Regional Airport","city":"Anniston","lat":33.5882,"lon":-85.8581},"AND":{"name":"Anderson Regional Airport","city":"Anderson","lat":34.4946,"lon":-82.7094},"AOO":{"name":"Altoona Blair County Airport","city":"Altoona","lat":40.2964,"lon":-78.32},"APA":{"name":"Centennial Airport","city":"Denver","lat":39.5701,"lon":-104.849},"APF":{"name":"Naples Municipal Airport","city":"Naples","lat":26.1526,"lon":-81.7753},"APG":{"name":"Phillips Army Air Field","city":"Aberdeen","lat":39.4662,"lon":-76.1688},"APN":{"name":"Alpena County Regional Airport","city":"Alpena","lat":45.0781,"lon":-83.5603},"ARA":{"name":"Acadiana Regional Airport","city":"New Iberia","lat":30.0378,"lon":-91.8839},"ART":{"name":"Watertown International Airport","city":"Watertown","lat":43.9919,"lon":-76.0217},"ASE":{"name":"Aspen-Pitkin County Airport (Sardy Field)","city":"Aspen","lat":39.2232,"lon":-106.869},"AST":{"name":"Astoria Regional Airport","city":"Astoria","lat":46.158,"lon":-123.879},"ATL":{"name":"Hartsfield Jackson Atlanta International Airport","city":"Atlanta","lat":33.6367,"lon":-84.4281},"ATW":{"name":"Appleton International Airport","city":"Appleton","lat":44.2585,"lon":-88.519},"ATY":{"name":"Watertown Regional Airport","city":"Watertown","lat":44.914,"lon":-97.1547},"AUG":{"name":"Augusta State Airport","city":"Augusta","lat":44.3206,"lon":-69.7973},"AUS":{"name":"Austin Bergstrom International Airport","city":"Austin","lat":30.1975,"lon":-97.662},"AUW":{"name":"Wausau Downtown Airport","city":"Wausau","lat":44.9262,"lon":-89.6266},"AVL":{"name":"Asheville Regional Airport","city":"Asheville","lat":35.4355,"lon":-82.5419},"AVP":{"name":"Wilkes-Barre/Scranton International Airport","city":"Wilkes-Barre/Scranton","lat":41.3371,"lon":-75.7242},"AXN":{"name":"Chandler Field","city":"Alexandria","lat":45.8663,"lon":-95.3947},"AZO":{"name":"Kalamazoo/Battle Creek International Airport","city":"Kalamazoo","lat":42.2321,"lon":-85.5496},"BAB":{"name":"Beale Air Force Base","city":"Beale Air Force Base","lat":39.1361,"lon":-121.437},"BAD":{"name":"Barksdale Air Force Base","city":"Bossier City","lat":32.5018,"lon":-93.6627},"BAF":{"name":"Westfield-Barnes Regional Airport","city":"Westfield","lat":42.1578,"lon":-72.7156},"CLU":{"name":"Columbus Municipal Airport","city":"Columbus","lat":39.2624,"lon":-85.8956},"BBD":{"name":"Curtis Field","city":"Brady","lat":31.1789,"lon":-99.3247},"BKG":{"name":"Branson Airport","city":"Branson","lat":36.5321,"lon":-93.2005},"BCE":{"name":"Bryce Canyon Airport","city":"Bryce Canyon","lat":37.7064,"lon":-112.145},"BCT":{"name":"Boca Raton Airport","city":"Boca Raton","lat":26.3785,"lon":-80.1077},"BDE":{"name":"Baudette International Airport","city":"Baudette","lat":48.7284,"lon":-94.6122},"BDL":{"name":"Bradley International Airport","city":"Hartford","lat":41.9386,"lon":-72.688},"BDR":{"name":"Igor I Sikorsky Memorial Airport","city":"Bridgeport","lat":41.1635,"lon":-73.1262},"BED":{"name":"Laurence G Hanscom Field","city":"Bedford","lat":42.47,"lon":-71.289},"BFD":{"name":"Bradford Regional Airport","city":"Bradford","lat":41.8031,"lon":-78.6401},"BFF":{"name":"Western Neb. Rgnl/William B. Heilig Airport","city":"Scottsbluff","lat":41.874,"lon":-103.596},"BFI":{"name":"King County International Airport - Boeing Field","city":"Seattle","lat":47.527,"lon":-122.2999},"BFL":{"name":"Meadows Field","city":"Bakersfield","lat":35.4336,"lon":-119.057},"BFM":{"name":"Mobile Downtown Airport","city":"Mobile","lat":30.6268,"lon":-88.0681},"BGM":{"name":"Greater Binghamton/Edwin A Link field","city":"Binghamton","lat":42.2087,"lon":-75.9798},"BGR":{"name":"Bangor International Airport","city":"Bangor","lat":44.8064,"lon":-68.8267},"BHB":{"name":"Hancock County-Bar Harbor Airport","city":"Bar Harbor","lat":44.45,"lon":-68.3615},"BHM":{"name":"Birmingham-Shuttlesworth International Airport","city":"Birmingham","lat":33.5629,"lon":-86.7507},"BIF":{"name":"Biggs Army Air Field (Fort Bliss)","city":"Fort Bliss/El Paso","lat":31.8495,"lon":-106.38},"BIH":{"name":"Eastern Sierra Regional Airport","city":"Bishop","lat":37.3731,"lon":-118.364},"BIL":{"name":"Billings Logan International Airport","city":"Billings","lat":45.8089,"lon":-108.5412},"BIS":{"name":"Bismarck Municipal Airport","city":"Bismarck","lat":46.7727,"lon":-100.7469},"BIX":{"name":"Keesler Air Force Base","city":"Biloxi","lat":30.4104,"lon":-88.9244},"BJC":{"name":"Rocky Mountain Metropolitan Airport","city":"Denver","lat":39.9088,"lon":-105.117},"BJI":{"name":"Bemidji Regional Airport","city":"Bemidji","lat":47.5094,"lon":-94.9337},"BKE":{"name":"Baker City Municipal Airport","city":"Baker City","lat":44.8373,"lon":-117.809},"BFK":{"name":"Buckley Space Force Base","city":"Aurora","lat":39.7017,"lon":-104.752},"BKL":{"name":"Burke Lakefront Airport","city":"Cleveland","lat":41.5175,"lon":-81.6833},"BKW":{"name":"Raleigh County Memorial Airport","city":"Beaver","lat":37.7873,"lon":-81.1242},"BLF":{"name":"Mercer County Airport","city":"Bluefield","lat":37.2958,"lon":-81.2077},"BLH":{"name":"Blythe Airport","city":"Blythe","lat":33.6192,"lon":-114.717},"BLI":{"name":"Bellingham International Airport","city":"Bellingham","lat":48.7928,"lon":-122.538},"BLV":{"name":"Scott AFB/Midamerica Airport","city":"Belleville","lat":38.5452,"lon":-89.8352},"BMG":{"name":"Monroe County Airport","city":"Bloomington","lat":39.146,"lon":-86.6167},"BMI":{"name":"Central Illinois Regional Airport at Bloomington-Normal","city":"Bloomington/Normal","lat":40.4771,"lon":-88.9159},"BNA":{"name":"Nashville International Airport","city":"Nashville","lat":36.1245,"lon":-86.6782},"BNO":{"name":"Burns Municipal Airport","city":"Burns","lat":43.5905,"lon":-118.9552},"BOI":{"name":"Boise Air Terminal/Gowen Field","city":"Boise","lat":43.5644,"lon":-116.223},"BOS":{"name":"Boston Logan International Airport","city":"Boston","lat":42.362,"lon":-71.0079},"BPI":{"name":"Miley Memorial Field","city":"Big Piney","lat":42.5851,"lon":-110.111},"WMH":{"name":"Ozark Regional Airport","city":"Mountain Home","lat":36.3689,"lon":-92.4705},"BPT":{"name":"Jack Brooks Regional Airport","city":"Beaumont/Port Arthur","lat":29.9508,"lon":-94.0207},"BQK":{"name":"Brunswick Golden Isles Airport","city":"Brunswick","lat":31.2588,"lon":-81.4665},"BRD":{"name":"Brainerd Lakes Regional Airport","city":"Brainerd","lat":46.4029,"lon":-94.1297},"BRL":{"name":"Southeast Iowa Regional Airport","city":"Burlington","lat":40.7832,"lon":-91.1255},"BRO":{"name":"Brownsville South Padre Island International Airport","city":"Brownsville","lat":25.9072,"lon":-97.4252},"BTL":{"name":"Battle Creek Executive Airport at Kellogg Field","city":"Battle Creek","lat":42.3073,"lon":-85.2515},"BTM":{"name":"Bert Mooney Airport","city":"Butte","lat":45.9548,"lon":-112.497},"BTR":{"name":"Baton Rouge Metropolitan Airport","city":"Baton Rouge","lat":30.5332,"lon":-91.1496},"BTV":{"name":"Patrick Leahy Burlington International Airport","city":"Burlington","lat":44.4719,"lon":-73.1533},"BUF":{"name":"Buffalo Niagara International Airport","city":"Buffalo","lat":42.9405,"lon":-78.7322},"BUR":{"name":"Hollywood Burbank/Bob Hope Airport","city":"Burbank","lat":34.2028,"lon":-118.3581},"BFP":{"name":"Beaver County Airport","city":"Beaver Falls","lat":40.7725,"lon":-80.3914},"BVY":{"name":"Beverly Regional Airport","city":"Beverly / Danvers","lat":42.5842,"lon":-70.9165},"BWG":{"name":"Bowling Green Warren County Regional Airport","city":"Bowling Green","lat":36.9645,"lon":-86.4197},"BWI":{"name":"Baltimore/Washington International Thurgood Marshall Airport","city":"Baltimore","lat":39.1754,"lon":-76.6683},"NHZ":{"name":"Brunswick Executive Airport","city":"Brunswick","lat":43.8922,"lon":-69.9386},"BYH":{"name":"Arkansas International Airport","city":"Blytheville","lat":35.9643,"lon":-89.944},"BYI":{"name":"Burley Municipal Airport","city":"Burley","lat":42.5426,"lon":-113.772},"BYS":{"name":"Bicycle Lake Army Air Field","city":"Fort Irwin/Barstow","lat":35.2805,"lon":-116.63},"BZN":{"name":"Bozeman Yellowstone International Airport","city":"Bozeman","lat":45.7789,"lon":-111.1537},"CAE":{"name":"Columbia Metropolitan Airport","city":"Columbia","lat":33.9382,"lon":-81.123},"CAK":{"name":"Akron Canton Regional Airport","city":"Akron","lat":40.9161,"lon":-81.4422},"CAR":{"name":"Caribou Municipal Airport","city":"Caribou","lat":46.8715,"lon":-68.0179},"CBM":{"name":"Columbus Air Force Base","city":"Columbus","lat":33.6438,"lon":-88.4438},"CCR":{"name":"Buchanan Field","city":"Concord","lat":37.9897,"lon":-122.057},"CCY":{"name":"Northeast Iowa Regional Airport","city":"Charles City","lat":43.0726,"lon":-92.6108},"CDC":{"name":"Cedar City Regional Airport","city":"Cedar City","lat":37.701,"lon":-113.099},"CDR":{"name":"Chadron Municipal Airport","city":"Chadron","lat":42.8376,"lon":-103.095},"CDS":{"name":"Childress Municipal Airport","city":"Childress","lat":34.4338,"lon":-100.288},"CEC":{"name":"Jack Mc Namara Field Airport","city":"Crescent City","lat":41.7789,"lon":-124.2364},"CEF":{"name":"Westover Metropolitan Airport / Westover Air Reserve Base","city":"Chicopee","lat":42.194,"lon":-72.5348},"CEW":{"name":"Bob Sikes Airport","city":"Crestview","lat":30.7788,"lon":-86.5221},"CEZ":{"name":"Cortez Municipal Airport","city":"Cortez","lat":37.303,"lon":-108.628},"CGF":{"name":"Cuyahoga County Airport","city":"Cleveland","lat":41.5651,"lon":-81.4864},"CGI":{"name":"Cape Girardeau Regional Airport","city":"Cape Girardeau","lat":37.2253,"lon":-89.5708},"CHA":{"name":"Chattanooga Metropolitan Airport (Lovell Field)","city":"Chattanooga","lat":35.0353,"lon":-85.2038},"CHO":{"name":"Charlottesville Albemarle Airport","city":"Charlottesville","lat":38.1386,"lon":-78.4529},"CHS":{"name":"Charleston International Airport","city":"Charleston","lat":32.8962,"lon":-80.0382},"CID":{"name":"The Eastern Iowa Airport","city":"Cedar Rapids","lat":41.8847,"lon":-91.7108},"CIU":{"name":"Chippewa County International Airport","city":"Kincheloe","lat":46.242,"lon":-84.4621},"CKB":{"name":"North Central West Virginia Airport","city":"Bridgeport","lat":39.2966,"lon":-80.2281},"CLE":{"name":"Cleveland Hopkins International Airport","city":"Cleveland","lat":41.4117,"lon":-81.8498},"CLL":{"name":"Easterwood Field","city":"College Station","lat":30.5886,"lon":-96.3638},"CLM":{"name":"William R Fairchild International Airport","city":"Port Angeles","lat":48.1202,"lon":-123.5},"CLT":{"name":"Charlotte Douglas International Airport","city":"Charlotte","lat":35.214,"lon":-80.9431},"CMH":{"name":"John Glenn Columbus International Airport","city":"Columbus","lat":39.998,"lon":-82.8919},"CMI":{"name":"University of Illinois Willard Airport","city":"Savoy","lat":40.0398,"lon":-88.2762},"CMX":{"name":"Houghton County Memorial Airport","city":"Hancock","lat":47.1684,"lon":-88.4891},"CNM":{"name":"Cavern City Air Terminal","city":"Carlsbad","lat":32.3375,"lon":-104.263},"CNU":{"name":"Chanute Martin Johnson Airport","city":"Chanute","lat":37.6682,"lon":-95.4867},"CNY":{"name":"Canyonlands Regional Airport","city":"Moab","lat":38.755,"lon":-109.755},"COD":{"name":"Yellowstone Regional Airport","city":"Cody","lat":44.5202,"lon":-109.024},"COE":{"name":"Coeur D'Alene Airport - Pappy Boyington Field","city":"Coeur d'Alene","lat":47.7743,"lon":-116.82},"COF":{"name":"Patrick Space Force Base","city":"Cocoa Beach","lat":28.2349,"lon":-80.6101},"CON":{"name":"Concord Municipal Airport","city":"Concord","lat":43.2027,"lon":-71.5023},"COS":{"name":"City of Colorado Springs Municipal Airport","city":"Colorado Springs","lat":38.8058,"lon":-104.701},"COU":{"name":"Columbia Regional Airport","city":"Columbia","lat":38.8181,"lon":-92.2196},"CPR":{"name":"Casper-Natrona County International Airport","city":"Casper","lat":42.9074,"lon":-106.4616},"CRE":{"name":"Grand Strand Airport","city":"North Myrtle Beach","lat":33.8117,"lon":-78.7239},"CRG":{"name":"Jacksonville Executive at Craig Airport","city":"Jacksonville","lat":30.3363,"lon":-81.5144},"CRP":{"name":"Corpus Christi International Airport","city":"Corpus Christi","lat":27.7704,"lon":-97.5012},"CLD":{"name":"McClellan-Palomar Airport","city":"Carlsbad","lat":33.1283,"lon":-117.28},"CRW":{"name":"Yeager Airport","city":"Charleston","lat":38.3731,"lon":-81.5932},"CSG":{"name":"Columbus Airport","city":"Columbus","lat":32.5164,"lon":-84.9396},"CSV":{"name":"Crossville Memorial Airport Whitson Field","city":"Crossville","lat":35.9513,"lon":-85.085},"CTB":{"name":"Cut Bank International Airport","city":"Cut Bank","lat":48.6087,"lon":-112.3782},"CUB":{"name":"Jim Hamilton L.B. Owens Airport","city":"Columbia","lat":33.9705,"lon":-80.9952},"CVG":{"name":"Cincinnati Northern Kentucky International Airport","city":"Cincinnati / Covington","lat":39.0488,"lon":-84.6678},"CVN":{"name":"Clovis Municipal Airport","city":"Clovis","lat":34.4266,"lon":-103.0788},"CVO":{"name":"Corvallis Municipal Airport","city":"Corvallis","lat":44.4972,"lon":-123.29},"CVS":{"name":"Cannon Air Force Base","city":"Clovis","lat":34.3828,"lon":-103.322},"CWA":{"name":"Central Wisconsin Airport","city":"Mosinee","lat":44.7774,"lon":-89.6702},"CXO":{"name":"Conroe-North Houston Regional Airport","city":"Houston","lat":30.3518,"lon":-95.4145},"CSN":{"name":"Carson Airport","city":"Carson City","lat":39.1943,"lon":-119.7343},"CYS":{"name":"Cheyenne Regional Jerry Olson Field","city":"Cheyenne","lat":41.1557,"lon":-104.812},"DAA":{"name":"Davison Army Air Field","city":"Fort Belvoir","lat":38.715,"lon":-77.181},"DAB":{"name":"Daytona Beach International Airport","city":"Daytona Beach","lat":29.1825,"lon":-81.0595},"DAG":{"name":"Barstow Daggett Airport","city":"Daggett","lat":34.8537,"lon":-116.787},"DAL":{"name":"Dallas Love Field","city":"Dallas","lat":32.8448,"lon":-96.8477},"DAN":{"name":"Danville Regional Airport","city":"Danville","lat":36.5729,"lon":-79.3361},"DAY":{"name":"James M. Cox Dayton International Airport","city":"Dayton","lat":39.9024,"lon":-84.2194},"DBQ":{"name":"Dubuque Regional Airport","city":"Dubuque","lat":42.402,"lon":-90.7095},"DCA":{"name":"Ronald Reagan Washington National Airport","city":"Washington","lat":38.8521,"lon":-77.0377},"DDC":{"name":"Dodge City Regional Airport","city":"Dodge City","lat":37.7634,"lon":-99.9656},"DEC":{"name":"Decatur Airport","city":"Decatur","lat":39.8346,"lon":-88.8657},"DEN":{"name":"Denver International Airport","city":"Denver","lat":39.86,"lon":-104.6738},"DET":{"name":"Coleman A. Young Municipal Airport","city":"Detroit","lat":42.4092,"lon":-83.0099},"DFW":{"name":"Dallas Fort Worth International Airport","city":"Dallas-Fort Worth","lat":32.8968,"lon":-97.038},"DHN":{"name":"Dothan Regional Airport","city":"Dothan","lat":31.3213,"lon":-85.4496},"DHT":{"name":"Dalhart Municipal Airport","city":"Dalhart","lat":36.0226,"lon":-102.547},"DIK":{"name":"Dickinson Theodore Roosevelt Regional Airport","city":"Dickinson","lat":46.7975,"lon":-102.8019},"DLF":{"name":"Laughlin Air Force Base","city":"Del Rio","lat":29.3595,"lon":-100.778},"DLH":{"name":"Duluth International Airport","city":"Duluth","lat":46.8419,"lon":-92.1987},"DLS":{"name":"Columbia Gorge Regional Airport","city":"Dallesport / The Dalles","lat":45.621,"lon":-121.1708},"DMA":{"name":"Davis Monthan Air Force Base","city":"Tucson","lat":32.1665,"lon":-110.883},"DMN":{"name":"Deming Municipal Airport","city":"Deming","lat":32.2623,"lon":-107.721},"DNL":{"name":"Daniel Field","city":"Augusta","lat":33.4665,"lon":-82.0394},"DOV":{"name":"Dover Civil Air Terminal/Dover Air Force Base","city":"Dover","lat":39.1295,"lon":-75.466},"DPA":{"name":"Dupage Airport","city":"Chicago/West Chicago","lat":41.9078,"lon":-88.2486},"DRA":{"name":"Desert Rock Airport","city":"Mercury","lat":36.6194,"lon":-116.033},"DRI":{"name":"Beauregard Regional Airport","city":"DeRidder","lat":30.8317,"lon":-93.3399},"DRO":{"name":"Durango La Plata County Airport","city":"Durango","lat":37.1515,"lon":-107.754},"DRT":{"name":"Del Rio International Airport","city":"Del Rio","lat":29.3742,"lon":-100.927},"DSM":{"name":"Des Moines International Airport","city":"Des Moines","lat":41.534,"lon":-93.6567},"DSI":{"name":"Destin Executive Airport","city":"Destin","lat":30.4001,"lon":-86.4715},"DTW":{"name":"Detroit Metropolitan Wayne County Airport","city":"Detroit","lat":42.2138,"lon":-83.3538},"DUA":{"name":"Durant Regional Airport - Eaker Field","city":"Durant","lat":33.9397,"lon":-96.3951},"DUG":{"name":"Bisbee Douglas International Airport","city":"Douglas Bisbee","lat":31.4641,"lon":-109.6046},"DUJ":{"name":"DuBois Regional Airport","city":"Dubois","lat":41.1783,"lon":-78.8987},"DVL":{"name":"Devils Lake Regional Airport","city":"Devils Lake","lat":48.1155,"lon":-98.9088},"DXR":{"name":"Danbury Municipal Airport","city":"Danbury","lat":41.3717,"lon":-73.4822},"DYS":{"name":"Dyess Air Force Base","city":"Abilene","lat":32.4208,"lon":-99.8546},"EAR":{"name":"Kearney Regional Airport","city":"Kearney","lat":40.727,"lon":-99.0068},"EAT":{"name":"Pangborn Memorial Airport","city":"Wenatchee","lat":47.3989,"lon":-120.207},"EAU":{"name":"Chippewa Valley Regional Airport","city":"Eau Claire","lat":44.8658,"lon":-91.4843},"ECG":{"name":"Elizabeth City Regional Airport & Coast Guard Air Station","city":"Elizabeth City","lat":36.2606,"lon":-76.1746},"ECP":{"name":"Northwest Florida Beaches International Airport","city":"Panama City Beach","lat":30.3571,"lon":-85.7954},"EDW":{"name":"Edwards Air Force Base","city":"Edwards","lat":34.9108,"lon":-117.8864},"EED":{"name":"Needles Airport","city":"Needles","lat":34.7663,"lon":-114.623},"EEN":{"name":"Dillant Hopkins Airport","city":"Keene","lat":42.8984,"lon":-72.2708},"EFD":{"name":"Ellington Airport","city":"Houston","lat":29.6073,"lon":-95.1588},"EGE":{"name":"Eagle County Regional Airport","city":"Eagle","lat":39.6426,"lon":-106.918},"EGI":{"name":"Duke Field","city":"Crestview","lat":30.6504,"lon":-86.5229},"EKA":{"name":"Murray Field","city":"Eureka","lat":40.8034,"lon":-124.113},"EKN":{"name":"Elkins-Randolph County Regional Airport","city":"Elkins","lat":38.8898,"lon":-79.8577},"EKO":{"name":"Elko Regional Airport","city":"Elko","lat":40.8249,"lon":-115.792},"ELD":{"name":"South Arkansas Regional Airport at Goodwin Field","city":"El Dorado","lat":33.221,"lon":-92.8133},"ELM":{"name":"Elmira Corning Regional Airport","city":"Elmira/Corning","lat":42.1599,"lon":-76.8916},"LYU":{"name":"Ely Municipal Airport","city":"Ely","lat":47.8245,"lon":-91.8307},"ELP":{"name":"El Paso International Airport","city":"El Paso","lat":31.8099,"lon":-106.3756},"ELY":{"name":"Ely Airport Yelland Field","city":"Ely","lat":39.2997,"lon":-114.842},"END":{"name":"Vance Air Force Base","city":"Enid","lat":36.3392,"lon":-97.9165},"ENV":{"name":"Wendover Airport","city":"Wendover","lat":40.7187,"lon":-114.031},"ENW":{"name":"Kenosha Regional Airport","city":"Kenosha","lat":42.5957,"lon":-87.9278},"ERI":{"name":"Erie International Tom Ridge Field","city":"Erie","lat":42.0831,"lon":-80.1739},"ESC":{"name":"Delta County Airport","city":"Escanaba","lat":45.7232,"lon":-87.0886},"ESF":{"name":"Esler Army Airfield / Esler Regional Airport","city":"Alexandria","lat":31.3943,"lon":-92.2941},"EUG":{"name":"Eugene Airport","city":"Eugene","lat":44.1246,"lon":-123.212},"EVV":{"name":"Evansville Regional Airport","city":"Evansville","lat":38.037,"lon":-87.5324},"EVW":{"name":"Evanston-Uinta County Airport-Burns Field","city":"Evanston","lat":41.2748,"lon":-111.035},"EWB":{"name":"New Bedford Regional Airport","city":"New Bedford","lat":41.6761,"lon":-70.9569},"EWN":{"name":"Coastal Carolina Regional Airport","city":"New Bern","lat":35.073,"lon":-77.0429},"EWR":{"name":"Newark Liberty International Airport","city":"Newark","lat":40.6894,"lon":-74.1705},"EYW":{"name":"Key West International Airport","city":"Key West","lat":24.5561,"lon":-81.7596},"FAF":{"name":"Felker Army Air Field","city":"Newport News (Fort Eustis)","lat":37.1325,"lon":-76.6088},"FAR":{"name":"Hector International Airport","city":"Fargo","lat":46.9207,"lon":-96.8158},"FAT":{"name":"Fresno Yosemite International Airport","city":"Fresno","lat":36.7758,"lon":-119.718},"FAY":{"name":"Fayetteville Regional Airport - Grannis Field","city":"Fayetteville","lat":34.9912,"lon":-78.8803},"FBG":{"name":"Simmons Army Air Field","city":"Fort Bragg","lat":35.1318,"lon":-78.9367},"FCS":{"name":"Butts AAF (Fort Carson) Air Field","city":"Fort Carson","lat":38.6784,"lon":-104.757},"FDY":{"name":"Findlay Airport","city":"Findlay","lat":41.0135,"lon":-83.6687},"FFO":{"name":"Wright-Patterson Air Force Base","city":"Dayton","lat":39.8261,"lon":-84.0483},"FRD":{"name":"Friday Harbor Airport","city":"Friday Harbor","lat":48.5237,"lon":-123.0246},"FHU":{"name":"Sierra Vista Municipal Airport / Libby Army Air Field","city":"Fort Huachuca / Sierra Vista","lat":31.5874,"lon":-110.3482},"FKL":{"name":"Venango Regional Airport","city":"Franklin","lat":41.3779,"lon":-79.8604},"FLG":{"name":"Flagstaff Pulliam Airport","city":"Flagstaff","lat":35.1398,"lon":-111.6698},"FLL":{"name":"Fort Lauderdale Hollywood International Airport","city":"Fort Lauderdale","lat":26.0726,"lon":-80.1527},"FLO":{"name":"Florence Regional Airport","city":"Florence","lat":34.1854,"lon":-79.7239},"FME":{"name":"Fort Meade Executive Airport","city":"Fort Meade(Odenton)","lat":39.0854,"lon":-76.7594},"FMN":{"name":"Four Corners Regional Airport","city":"Farmington","lat":36.7412,"lon":-108.23},"FMY":{"name":"Page Field","city":"Fort Myers","lat":26.5866,"lon":-81.8633},"FNL":{"name":"Northern Colorado Regional Airport","city":"Loveland","lat":40.4497,"lon":-105.0113},"FNT":{"name":"Bishop International Airport","city":"Flint","lat":42.9693,"lon":-83.7434},"FOD":{"name":"Fort Dodge Regional Airport","city":"Fort Dodge","lat":42.5526,"lon":-94.1912},"FOE":{"name":"Topeka Regional Airport","city":"Topeka","lat":38.9509,"lon":-95.6636},"FPR":{"name":"Treasure Coast International Airport","city":"Fort Pierce","lat":27.4951,"lon":-80.3683},"FRG":{"name":"Republic Airport","city":"East Farmingdale","lat":40.7286,"lon":-73.4143},"FRI":{"name":"Marshall Army Air Field","city":"Fort Riley (Junction City)","lat":39.053,"lon":-96.7642},"FSD":{"name":"Sioux Falls Regional Airport","city":"Sioux Falls","lat":43.5855,"lon":-96.7412},"FSI":{"name":"Henry Post Army Air Field","city":"Fort Sill","lat":34.6498,"lon":-98.4022},"FSM":{"name":"Fort Smith Regional Airport","city":"Fort Smith","lat":35.3366,"lon":-94.3674},"FST":{"name":"Fort Stockton Pecos County Airport","city":"Fort Stockton","lat":30.9157,"lon":-102.916},"FTK":{"name":"Godman Army Air Field","city":"Fort Knox","lat":37.9071,"lon":-85.9721},"FTW":{"name":"Fort Worth Meacham International Airport","city":"Fort Worth","lat":32.8199,"lon":-97.3608},"FTY":{"name":"Fulton County Airport Brown Field","city":"Atlanta","lat":33.7791,"lon":-84.5214},"FWA":{"name":"Fort Wayne International Airport","city":"Fort Wayne","lat":40.9789,"lon":-85.1945},"FXE":{"name":"Fort Lauderdale Executive Airport","city":"Fort Lauderdale","lat":26.1973,"lon":-80.1707},"FYV":{"name":"Drake Field","city":"Fayetteville","lat":36.0051,"lon":-94.1701},"GCC":{"name":"Northeast Wyoming Regional Airport","city":"Gillette","lat":44.3489,"lon":-105.539},"GCK":{"name":"Garden City Regional Airport","city":"Garden City","lat":37.9275,"lon":-100.724},"GCN":{"name":"Grand Canyon National Park Airport","city":"Grand Canyon - Tusayan","lat":35.9524,"lon":-112.147},"GDV":{"name":"Dawson Community Airport","city":"Glendive","lat":47.1377,"lon":-104.8069},"GEG":{"name":"Spokane International Airport","city":"Spokane","lat":47.6199,"lon":-117.534},"GFK":{"name":"Grand Forks International Airport","city":"Grand Forks","lat":47.9493,"lon":-97.1761},"GFL":{"name":"Floyd Bennett Memorial Airport","city":"Glens Falls","lat":43.3412,"lon":-73.6103},"GGG":{"name":"East Texas Regional Airport","city":"Longview","lat":32.384,"lon":-94.7115},"GGW":{"name":"Glasgow Valley County Airport Wokal Field","city":"Glasgow","lat":48.2125,"lon":-106.615},"GJT":{"name":"Grand Junction Regional Airport","city":"Grand Junction","lat":39.1267,"lon":-108.5294},"GLD":{"name":"Goodland Municipal Airport","city":"Goodland","lat":39.3707,"lon":-101.6998},"GLH":{"name":"Mid Delta Regional Airport","city":"Greenville","lat":33.4829,"lon":-90.9856},"GLS":{"name":"Scholes International At Galveston Airport","city":"Galveston","lat":29.2653,"lon":-94.8604},"GMU":{"name":"Greenville Downtown Airport","city":"Greenville","lat":34.8479,"lon":-82.3502},"GNV":{"name":"Gainesville Regional Airport","city":"Gainesville","lat":29.6901,"lon":-82.2718},"GON":{"name":"Groton New London Airport","city":"Groton","lat":41.3301,"lon":-72.0451},"FCA":{"name":"Glacier Park International Airport","city":"Kalispell","lat":48.3105,"lon":-114.256},"GPT":{"name":"Gulfport Biloxi International Airport","city":"Gulfport","lat":30.4056,"lon":-89.0698},"GRB":{"name":"Austin Straubel International Airport","city":"Green Bay","lat":44.4835,"lon":-88.1308},"GRF":{"name":"Gray Army Air Field","city":"Fort Lewis/Tacoma","lat":47.0792,"lon":-122.581},"GRI":{"name":"Central Nebraska Regional Airport","city":"Grand Island","lat":40.9675,"lon":-98.3096},"GRK":{"name":"Killeen Regional Airport / Robert Gray Army Airfield","city":"Fort Cavazos","lat":31.0672,"lon":-97.8289},"GRR":{"name":"Gerald R. Ford International Airport","city":"Grand Rapids","lat":42.8808,"lon":-85.5228},"GSB":{"name":"Seymour Johnson Air Force Base","city":"Goldsboro","lat":35.3394,"lon":-77.9606},"GSO":{"name":"Piedmont Triad International Airport","city":"Greensboro","lat":36.0994,"lon":-79.9373},"GSP":{"name":"Greenville-Spartanburg International Airport","city":"Greenville/Greer/Spartanburg","lat":34.8957,"lon":-82.2189},"GTF":{"name":"Great Falls International Airport","city":"Great Falls","lat":47.482,"lon":-111.371},"GTR":{"name":"Golden Triangle Regional Airport","city":"Columbus/W Point/Starkville","lat":33.4503,"lon":-88.5914},"GUC":{"name":"Gunnison Crested Butte Regional Airport","city":"Gunnison","lat":38.5347,"lon":-106.9346},"GUP":{"name":"Gallup Municipal Airport","city":"Gallup","lat":35.5117,"lon":-108.7882},"GUS":{"name":"Grissom Air Reserve Base","city":"Peru","lat":40.6481,"lon":-86.1521},"GUY":{"name":"Guymon Municipal Airport","city":"Guymon","lat":36.6851,"lon":-101.508},"GWO":{"name":"Greenwood\u2013Leflore Airport","city":"Greenwood","lat":33.495,"lon":-90.0882},"PNX":{"name":"North Texas Regional Airport Perrin Field","city":"Denison","lat":33.7141,"lon":-96.6737},"GYY":{"name":"Gary/Chicago International Airport","city":"Gary","lat":41.6171,"lon":-87.4132},"HBG":{"name":"Hattiesburg Bobby L Chain Municipal Airport","city":"Hattiesburg","lat":31.2648,"lon":-89.2528},"HBR":{"name":"Hobart Regional Airport","city":"Hobart","lat":34.9913,"lon":-99.0513},"HDN":{"name":"Yampa Valley Airport","city":"Hayden","lat":40.4812,"lon":-107.218},"MNZ":{"name":"Manassas Regional Airport/Harry P. Davis Field","city":"Manassas","lat":38.7214,"lon":-77.5154},"HFD":{"name":"Hartford Brainard Airport","city":"Hartford","lat":41.7367,"lon":-72.6494},"HGR":{"name":"Hagerstown Regional Richard A Henson Field","city":"Hagerstown","lat":39.7088,"lon":-77.728},"HHR":{"name":"Jack Northrop Field Hawthorne Municipal Airport","city":"Hawthorne","lat":33.9228,"lon":-118.335},"HIB":{"name":"Range Regional Airport","city":"Hibbing","lat":47.3848,"lon":-92.8369},"HIF":{"name":"Hill Air Force Base","city":"Ogden","lat":41.124,"lon":-111.9731},"HII":{"name":"Lake Havasu City Airport","city":"Lake Havasu City","lat":34.5705,"lon":-114.3577},"HIO":{"name":"Portland Hillsboro Airport","city":"Portland","lat":45.5404,"lon":-122.95},"HKY":{"name":"Hickory Regional Airport","city":"Hickory","lat":35.7411,"lon":-81.3895},"HLG":{"name":"Wheeling Ohio County Airport","city":"Wheeling","lat":40.175,"lon":-80.6463},"HLN":{"name":"Helena Regional Airport","city":"Helena","lat":46.6068,"lon":-111.983},"HMN":{"name":"Holloman Air Force Base","city":"Alamogordo","lat":32.8525,"lon":-106.107},"HOB":{"name":"Lea County Regional Airport","city":"Hobbs","lat":32.6875,"lon":-103.217},"HON":{"name":"Huron Regional Airport","city":"Huron","lat":44.3852,"lon":-98.2285},"HOP":{"name":"Campbell Army Airfield (Fort Campbell)","city":"Fort Campbell","lat":36.6742,"lon":-87.4897},"HOT":{"name":"Memorial Field Airport","city":"Hot Springs","lat":34.4788,"lon":-93.0963},"HOU":{"name":"William P. Hobby Airport","city":"Houston","lat":29.6453,"lon":-95.2768},"HPN":{"name":"Westchester County Airport","city":"White Plains","lat":41.067,"lon":-73.7076},"HQM":{"name":"Bowerman Airport","city":"Hoquiam","lat":46.9712,"lon":-123.937},"HRL":{"name":"Valley International Airport","city":"Harlingen","lat":26.2285,"lon":-97.6544},"HRO":{"name":"Boone County Airport","city":"Harrison","lat":36.2615,"lon":-93.1547},"HST":{"name":"Homestead Air Reserve Base","city":"Homestead","lat":25.4886,"lon":-80.3836},"HSV":{"name":"Huntsville International Airport","city":"Huntsville","lat":34.6362,"lon":-86.7744},"HTS":{"name":"Tri-State Airport / Milton J. Ferguson Field","city":"Huntington","lat":38.3667,"lon":-82.558},"HUA":{"name":"Redstone Army Air Field","city":"Redstone Arsnl Huntsville","lat":34.6787,"lon":-86.6848},"HUF":{"name":"Terre Haute Regional Airport, Hulman Field","city":"Terre Haute","lat":39.4515,"lon":-87.3076},"HUL":{"name":"Houlton International Airport","city":"Houlton","lat":46.1231,"lon":-67.7921},"HUT":{"name":"Hutchinson Municipal Airport","city":"Hutchinson","lat":38.0655,"lon":-97.8606},"HVN":{"name":"Tweed New Haven Airport","city":"New Haven","lat":41.2629,"lon":-72.8877},"HVR":{"name":"Havre City County Airport","city":"Havre","lat":48.5414,"lon":-109.7629},"HWO":{"name":"North Perry Airport","city":"Hollywood","lat":26.0012,"lon":-80.2407},"HHH":{"name":"Hilton Head Airport","city":"Hilton Head Island","lat":32.2244,"lon":-80.6975},"HYA":{"name":"Cape Cod Gateway Airport","city":"Hyannis","lat":41.6693,"lon":-70.2804},"HYR":{"name":"Sawyer County Airport","city":"Hayward","lat":46.0252,"lon":-91.4443},"HYS":{"name":"Hays Regional Airport","city":"Hays","lat":38.8445,"lon":-99.2731},"JFN":{"name":"Northeast Ohio Regional Airport","city":"Ashtabula","lat":41.778,"lon":-80.6955},"IAB":{"name":"McConnell Air Force Base","city":"Wichita","lat":37.6219,"lon":-97.2682},"IAD":{"name":"Washington Dulles International Airport","city":"Dulles","lat":38.9445,"lon":-77.4558},"IAG":{"name":"Niagara Falls International Airport","city":"Niagara Falls","lat":43.1073,"lon":-78.9462},"IAH":{"name":"George Bush Intercontinental Airport","city":"Houston","lat":29.9844,"lon":-95.3414},"ICT":{"name":"Wichita Dwight D. Eisenhower National Airport","city":"Wichita","lat":37.6503,"lon":-97.4286},"IDA":{"name":"Idaho Falls Regional Airport","city":"Idaho Falls","lat":43.5146,"lon":-112.071},"IFP":{"name":"Laughlin Bullhead International Airport","city":"Bullhead City","lat":35.1547,"lon":-114.5593},"IGM":{"name":"Kingman Airport","city":"Kingman","lat":35.2595,"lon":-113.938},"IKK":{"name":"Greater Kankakee Airport","city":"Kankakee","lat":41.0714,"lon":-87.8463},"ILG":{"name":"Wilmington Airport","city":"Wilmington","lat":39.6787,"lon":-75.6065},"ILM":{"name":"Wilmington International Airport","city":"Wilmington","lat":34.2723,"lon":-77.9051},"ILN":{"name":"Wilmington Airpark","city":"Wilmington","lat":39.4279,"lon":-83.7921},"IMT":{"name":"Ford Airport","city":"Kingsford","lat":45.8191,"lon":-88.1146},"IND":{"name":"Indianapolis International Airport","city":"Indianapolis","lat":39.7173,"lon":-86.2944},"INK":{"name":"Winkler County Airport","city":"Wink","lat":31.7796,"lon":-103.201},"INL":{"name":"Falls International Airport","city":"International Falls","lat":48.5662,"lon":-93.4031},"INT":{"name":"Smith Reynolds Airport","city":"Winston Salem","lat":36.1337,"lon":-80.222},"INW":{"name":"Winslow Lindbergh Regional Airport","city":"Winslow","lat":35.0219,"lon":-110.723},"IPL":{"name":"Imperial County Airport","city":"Imperial","lat":32.8354,"lon":-115.574},"IPT":{"name":"Williamsport Regional Airport","city":"Williamsport","lat":41.2421,"lon":-76.9224},"IRK":{"name":"Kirksville Regional Airport","city":"Kirksville","lat":40.0935,"lon":-92.5449},"ISM":{"name":"Kissimmee Gateway Airport","city":"Orlando","lat":28.2898,"lon":-81.4371},"ISO":{"name":"Kinston Regional Jetport At Stallings Field","city":"Kinston","lat":35.3314,"lon":-77.6088},"ISP":{"name":"Long Island MacArthur Airport","city":"Islip","lat":40.7963,"lon":-73.1017},"ITH":{"name":"Ithaca Tompkins Regional Airport","city":"Ithaca","lat":42.491,"lon":-76.4584},"AZA":{"name":"Mesa Gateway Airport","city":"Mesa","lat":33.3078,"lon":-111.655},"JAC":{"name":"Jackson Hole Airport","city":"Jackson","lat":43.6073,"lon":-110.738},"JAN":{"name":"Jackson-Medgar Wiley Evers International Airport","city":"Jackson","lat":32.3112,"lon":-90.0759},"JAX":{"name":"Jacksonville International Airport","city":"Jacksonville","lat":30.4925,"lon":-81.6878},"JBR":{"name":"Jonesboro Municipal Airport","city":"Jonesboro","lat":35.8317,"lon":-90.6464},"JCT":{"name":"Kimble County Airport","city":"Junction","lat":30.5113,"lon":-99.7635},"JFK":{"name":"John F. Kennedy International Airport","city":"New York","lat":40.6394,"lon":-73.7793},"JHW":{"name":"Chautauqua County-Jamestown Airport","city":"Jamestown","lat":42.1542,"lon":-79.254},"JLN":{"name":"Joplin Regional Airport","city":"Joplin","lat":37.1518,"lon":-94.4983},"JMS":{"name":"Jamestown Regional Airport","city":"Jamestown","lat":46.9297,"lon":-98.6782},"USA":{"name":"Concord-Padgett Regional Airport","city":"Concord","lat":35.3878,"lon":-80.7091},"JST":{"name":"John Murtha Johnstown Cambria County Airport","city":"Johnstown","lat":40.3161,"lon":-78.8339},"JXN":{"name":"Jackson County Airport/Reynolds Field","city":"Jackson","lat":42.2605,"lon":-84.463},"KLS":{"name":"Southwest Washington Regional Airport","city":"Kelso","lat":46.118,"lon":-122.898},"LAA":{"name":"Southeast Colorado Regional Airport","city":"Lamar","lat":38.0664,"lon":-102.6914},"LAF":{"name":"Purdue University Airport","city":"West Lafayette","lat":40.4129,"lon":-86.9394},"LAL":{"name":"Lakeland Linder International Airport","city":"Lakeland","lat":27.9893,"lon":-82.0207},"LAN":{"name":"Capital Region International Airport","city":"Lansing","lat":42.7776,"lon":-84.5857},"LAR":{"name":"Laramie Regional Airport","city":"Laramie","lat":41.3121,"lon":-105.675},"LAS":{"name":"Harry Reid International Airport","city":"Las Vegas","lat":36.0834,"lon":-115.1518},"LAW":{"name":"Lawton Fort Sill Regional Airport","city":"Lawton","lat":34.5677,"lon":-98.4166},"LAX":{"name":"Los Angeles International Airport","city":"Los Angeles","lat":33.9425,"lon":-118.408},"LBB":{"name":"Lubbock Preston Smith International Airport","city":"Lubbock","lat":33.6636,"lon":-101.823},"LBE":{"name":"Arnold Palmer Regional Airport","city":"Latrobe","lat":40.2759,"lon":-79.4048},"LBF":{"name":"North Platte Regional Airport Lee Bird Field","city":"North Platte","lat":41.1262,"lon":-100.684},"LBL":{"name":"Liberal Mid-America Regional Airport","city":"Liberal","lat":37.0442,"lon":-100.96},"LBT":{"name":"Lumberton Regional Airport","city":"Lumberton","lat":34.6108,"lon":-79.0594},"LJN":{"name":"Texas Gulf Coast Regional Airport","city":"Angleton","lat":29.1086,"lon":-95.4621},"LCH":{"name":"Lake Charles Regional Airport","city":"Lake Charles","lat":30.1261,"lon":-93.2233},"LCK":{"name":"Rickenbacker International Airport","city":"Columbus","lat":39.8138,"lon":-82.9278},"LEB":{"name":"Lebanon Municipal Airport","city":"Lebanon","lat":43.6261,"lon":-72.3042},"LEE":{"name":"Leesburg International Airport","city":"Leesburg","lat":28.8231,"lon":-81.8087},"LEX":{"name":"Blue Grass Airport","city":"Lexington","lat":38.0351,"lon":-84.6067},"LFI":{"name":"Langley Air Force Base","city":"Hampton","lat":37.0829,"lon":-76.3605},"LFK":{"name":"Angelina County Airport","city":"Lufkin","lat":31.234,"lon":-94.75},"LFT":{"name":"Lafayette Regional Airport","city":"Lafayette","lat":30.2053,"lon":-91.9876},"LGA":{"name":"LaGuardia Airport","city":"New York","lat":40.7772,"lon":-73.8726},"LGB":{"name":"Long Beach International Airport","city":"Long Beach","lat":33.8165,"lon":-118.1499},"LGU":{"name":"Logan-Cache Airport","city":"Logan","lat":41.7912,"lon":-111.852},"LIT":{"name":"Bill & Hillary Clinton National Airport/Adams Field","city":"Little Rock","lat":34.7292,"lon":-92.2236},"LMT":{"name":"Crater Lake-Klamath Regional Airport","city":"Klamath Falls","lat":42.1561,"lon":-121.733},"LND":{"name":"Hunt Field","city":"Lander","lat":42.8152,"lon":-108.73},"LNK":{"name":"Lincoln Airport","city":"Lincoln","lat":40.8449,"lon":-96.7618},"LNS":{"name":"Lancaster Airport","city":"Lancaster","lat":40.1217,"lon":-76.2961},"LOL":{"name":"Derby Field","city":"Lovelock","lat":40.0664,"lon":-118.565},"LOU":{"name":"Bowman Field","city":"Louisville","lat":38.228,"lon":-85.6637},"LOZ":{"name":"London-Corbin Airport/Magee Field","city":"London","lat":37.0822,"lon":-84.0849},"LRD":{"name":"Laredo International Airport","city":"Laredo","lat":27.5438,"lon":-99.4616},"LRF":{"name":"Little Rock Air Force Base","city":"Jacksonville","lat":34.9169,"lon":-92.1497},"LRU":{"name":"Las Cruces International Airport","city":"Las Cruces","lat":32.2894,"lon":-106.922},"LSE":{"name":"La Crosse Regional Airport","city":"La Crosse","lat":43.879,"lon":-91.2567},"LSF":{"name":"Lawson Army Air Field","city":"Fort Benning","lat":32.3325,"lon":-84.988},"LSV":{"name":"Nellis Air Force Base","city":"Las Vegas","lat":36.2362,"lon":-115.034},"LTS":{"name":"Altus Air Force Base","city":"Altus","lat":34.6671,"lon":-99.2667},"LUF":{"name":"Luke Air Force Base","city":"Glendale","lat":33.535,"lon":-112.383},"LUK":{"name":"Cincinnati Municipal Airport Lunken Field","city":"Cincinnati","lat":39.1024,"lon":-84.4189},"LVM":{"name":"Mission Field","city":"Livingston","lat":45.6994,"lon":-110.448},"LVS":{"name":"Las Vegas Municipal Airport","city":"Las Vegas","lat":35.6542,"lon":-105.142},"LWB":{"name":"Greenbrier Valley Airport","city":"Lewisburg","lat":37.8579,"lon":-80.4004},"LWM":{"name":"Lawrence Municipal Airport","city":"Lawrence","lat":42.7172,"lon":-71.1234},"LWS":{"name":"Lewiston Nez Perce County Airport","city":"Lewiston","lat":46.3745,"lon":-117.015},"LWT":{"name":"Lewistown Municipal Airport","city":"Lewistown","lat":47.0484,"lon":-109.4661},"LYH":{"name":"Lynchburg Regional Airport - Preston Glenn Field","city":"Lynchburg","lat":37.3267,"lon":-79.2004},"MAF":{"name":"Midland International Air and Space Port","city":"Midland","lat":31.9425,"lon":-102.202},"MBG":{"name":"Mobridge Municipal Airport","city":"Mobridge","lat":45.5465,"lon":-100.408},"MBS":{"name":"MBS International Airport","city":"Freeland","lat":43.5332,"lon":-84.0831},"MCB":{"name":"McComb-Pike County Airport / John E Lewis Field","city":"McComb","lat":31.1785,"lon":-90.4719},"MCC":{"name":"McClellan Airfield","city":"Sacramento","lat":38.6676,"lon":-121.401},"MCE":{"name":"Merced Regional Macready Field","city":"Merced","lat":37.2847,"lon":-120.514},"MCF":{"name":"MacDill Air Force Base","city":"Tampa","lat":27.8493,"lon":-82.5212},"MCI":{"name":"Kansas City International Airport","city":"Kansas City","lat":39.3017,"lon":-94.7139},"MCK":{"name":"McCook Ben Nelson Regional Airport","city":"McCook","lat":40.2078,"lon":-100.5928},"MCN":{"name":"Middle Georgia Regional Airport","city":"Macon","lat":32.6928,"lon":-83.6492},"MCO":{"name":"Orlando International Airport","city":"Orlando","lat":28.4294,"lon":-81.309},"MCW":{"name":"Mason City Municipal Airport","city":"Mason City","lat":43.1598,"lon":-93.3297},"MDH":{"name":"Southern Illinois Airport","city":"Murphysboro","lat":37.7781,"lon":-89.252},"MDT":{"name":"Harrisburg International Airport","city":"Harrisburg","lat":40.1928,"lon":-76.7623},"MDW":{"name":"Chicago Midway International Airport","city":"Chicago","lat":41.786,"lon":-87.7524},"MEI":{"name":"Key Field / Meridian Regional Airport","city":"Meridian","lat":32.3326,"lon":-88.7519},"MEM":{"name":"Memphis International Airport","city":"Memphis","lat":35.0438,"lon":-89.9763},"MER":{"name":"Castle Airport","city":"Merced","lat":37.3805,"lon":-120.568},"MFD":{"name":"Mansfield Lahm Regional Airport","city":"Mansfield","lat":40.8214,"lon":-82.5166},"MFE":{"name":"McAllen Miller International Airport","city":"McAllen","lat":26.1761,"lon":-98.238},"MFR":{"name":"Rogue Valley International-Medford Airport","city":"Medford","lat":42.3742,"lon":-122.873},"MGC":{"name":"Michigan City Municipal Airport","city":"Michigan City","lat":41.7033,"lon":-86.8212},"MGE":{"name":"Dobbins Air Reserve Base","city":"Marietta","lat":33.9154,"lon":-84.5163},"MGM":{"name":"Montgomery Regional (Dannelly Field) Airport","city":"Montgomery","lat":32.3006,"lon":-86.394},"MGW":{"name":"Morgantown Municipal Airport Walter L. (Bill) Hart Field","city":"Morgantown","lat":39.6433,"lon":-79.9176},"MHK":{"name":"Manhattan Regional Airport","city":"Manhattan","lat":39.141,"lon":-96.6708},"MHR":{"name":"Sacramento Mather Airport","city":"Sacramento","lat":38.5547,"lon":-121.298},"MHT":{"name":"Manchester-Boston Regional Airport","city":"Manchester","lat":42.9326,"lon":-71.4357},"MHV":{"name":"Mojave Air &  Space Port","city":"Mojave","lat":35.0564,"lon":-118.1453},"MIA":{"name":"Miami International Airport","city":"Miami","lat":25.796,"lon":-80.2898},"MIB":{"name":"Minot Air Force Base","city":"Minot","lat":48.4156,"lon":-101.358},"MIE":{"name":"Delaware County Johnson Field","city":"Muncie","lat":40.2423,"lon":-85.3959},"MIV":{"name":"Millville Municipal Airport","city":"Millville","lat":39.3678,"lon":-75.0722},"MKC":{"name":"Charles B. Wheeler Downtown Airport","city":"Kansas City","lat":39.1232,"lon":-94.5928},"MKE":{"name":"General Mitchell International Airport","city":"Milwaukee","lat":42.9472,"lon":-87.8966},"MKG":{"name":"Muskegon County Airport","city":"Muskegon","lat":43.1695,"lon":-86.2382},"MKL":{"name":"McKellar-Sipes Regional Airport","city":"Jackson","lat":35.5999,"lon":-88.9156},"MLB":{"name":"Melbourne Orlando International Airport","city":"Melbourne","lat":28.102,"lon":-80.6411},"MLC":{"name":"Mc Alester Regional Airport","city":"Mc Alester","lat":34.8824,"lon":-95.7835},"MLI":{"name":"Quad City International Airport","city":"Moline","lat":41.4485,"lon":-90.5075},"MLS":{"name":"Miles City Airport - Frank Wiley Field","city":"Miles City","lat":46.4273,"lon":-105.8854},"MLU":{"name":"Monroe Regional Airport","city":"Monroe","lat":32.5109,"lon":-92.0377},"MMT":{"name":"Mc Entire Joint National Guard Base","city":"Eastover","lat":33.9208,"lon":-80.8013},"MMU":{"name":"Morristown Municipal Airport","city":"Morristown","lat":40.7991,"lon":-74.4149},"MOB":{"name":"Mobile Regional Airport","city":"Mobile","lat":30.6912,"lon":-88.2428},"MOD":{"name":"Modesto City Co-Harry Sham Field","city":"Modesto","lat":37.6258,"lon":-120.954},"MOT":{"name":"Minot International Airport","city":"Minot","lat":48.258,"lon":-101.2791},"MPV":{"name":"Edward F Knapp State Airport","city":"Barre/Montpelier","lat":44.2035,"lon":-72.5623},"MQY":{"name":"Smyrna Airport","city":"Smyrna","lat":36.009,"lon":-86.5201},"MRB":{"name":"Eastern WV Regional Airport/Shepherd Field","city":"Martinsburg","lat":39.4019,"lon":-77.9846},"MRY":{"name":"Monterey Regional Airport","city":"Monterey","lat":36.5868,"lon":-121.8442},"MSL":{"name":"Northwest Alabama Regional Airport","city":"Muscle Shoals","lat":34.7451,"lon":-87.613},"MSN":{"name":"Dane County Regional Truax Field","city":"Madison","lat":43.1399,"lon":-89.3375},"MSO":{"name":"Missoula Montana Airport","city":"Missoula","lat":46.9158,"lon":-114.0911},"MSP":{"name":"Minneapolis\u2013Saint Paul International Airport / Wold\u2013Chamberlain Field","city":"Minneapolis","lat":44.8801,"lon":-93.2217},"MSS":{"name":"Massena International Airport Richards Field","city":"Massena","lat":44.9362,"lon":-74.8443},"MSY":{"name":"Louis Armstrong New Orleans International Airport","city":"New Orleans","lat":29.9934,"lon":-90.2647},"MTC":{"name":"Selfridge Air National Guard Base Airport","city":"Mount Clemens","lat":42.6135,"lon":-82.8369},"MTH":{"name":"Florida Keys Marathon International Airport","city":"Marathon","lat":24.726,"lon":-81.0514},"MTJ":{"name":"Montrose Regional Airport","city":"Montrose","lat":38.5098,"lon":-107.894},"MTN":{"name":"Martin State Airport","city":"Baltimore","lat":39.3257,"lon":-76.4138},"MUI":{"name":"Muir Army Air Field (Fort Indiantown Gap) Airport","city":"Fort Indiantown Gap(Annville)","lat":40.4352,"lon":-76.5687},"MUO":{"name":"Mountain Home Air Force Base","city":"Mountain Home","lat":43.0436,"lon":-115.872},"MWA":{"name":"Veterans Airport of Southern Illinois","city":"Marion","lat":37.7512,"lon":-89.0166},"MWH":{"name":"Grant County International Airport","city":"Moses Lake","lat":47.2077,"lon":-119.32},"MWL":{"name":"Mineral Wells Regional Airport","city":"Mineral Wells","lat":32.7816,"lon":-98.0602},"MXF":{"name":"Maxwell Air Force Base","city":"Montgomery","lat":32.3829,"lon":-86.3658},"MYL":{"name":"McCall Municipal Airport","city":"McCall","lat":44.8888,"lon":-116.1011},"MYR":{"name":"Myrtle Beach International Airport","city":"Myrtle Beach","lat":33.6797,"lon":-78.9283},"MYV":{"name":"Yuba County Airport","city":"Marysville","lat":39.0978,"lon":-121.57},"NBG":{"name":"New Orleans NAS JRB/Alvin Callender Field","city":"New Orleans","lat":29.8253,"lon":-90.035},"NEL":{"name":"Lakehurst Maxfield Field Airport","city":"Lakehurst","lat":40.0333,"lon":-74.3533},"NEW":{"name":"Lakefront Airport","city":"New Orleans","lat":30.0424,"lon":-90.0283},"NFL":{"name":"Fallon Naval Air Station","city":"Fallon","lat":39.4166,"lon":-118.701},"FWH":{"name":"NAS Fort Worth JRB / Carswell Field","city":"Fort Worth","lat":32.7692,"lon":-97.4415},"NGP":{"name":"Naval Air Station Corpus Christi Truax Field","city":"Corpus Christi","lat":27.6926,"lon":-97.2911},"NGU":{"name":"Norfolk Naval Station (Chambers Field)","city":"Norfolk","lat":36.9376,"lon":-76.2893},"NHK":{"name":"Patuxent River Naval Air Station (Trapnell Field)","city":"Patuxent River","lat":38.286,"lon":-76.4118},"NIP":{"name":"Jacksonville Naval Air Station (Towers Field)","city":"Jacksonville","lat":30.2358,"lon":-81.6806},"NJK":{"name":"El Centro NAF Airport (Vraciu Field)","city":"El Centro","lat":32.8292,"lon":-115.672},"NKX":{"name":"Miramar Marine Corps Air Station - Mitscher Field","city":"San Diego","lat":32.8684,"lon":-117.143},"NLC":{"name":"Lemoore Naval Air Station (Reeves Field) Airport","city":"Lemoore","lat":36.333,"lon":-119.952},"NPA":{"name":"Naval Air Station Pensacola Forrest Sherman Field","city":"Pensacola","lat":30.3527,"lon":-87.3186},"NQA":{"name":"Millington-Memphis Airport","city":"Millington","lat":35.3567,"lon":-89.8703},"NQI":{"name":"Kingsville Naval Air Station","city":"Kingsville","lat":27.5072,"lon":-97.8097},"NQX":{"name":"Naval Air Station Key West/Boca Chica Field","city":"Key West","lat":24.5758,"lon":-81.6889},"NRB":{"name":"Naval Station Mayport / Admiral David L McDonald Field","city":"Jacksonville","lat":30.3911,"lon":-81.4247},"NSE":{"name":"Whiting Field Naval Air Station - North","city":"Milton","lat":30.7242,"lon":-87.0219},"NTD":{"name":"Point Mugu Naval Air Station (Naval Base Ventura Co)","city":"Point Mugu","lat":34.1203,"lon":-119.121},"NTU":{"name":"Oceana Naval Air Station","city":"Virginia Beach","lat":36.8207,"lon":-76.0335},"NUQ":{"name":"Moffett Federal Airfield","city":"Mountain View","lat":37.4161,"lon":-122.049},"NUW":{"name":"Whidbey Island Naval Air Station (Ault Field)","city":"Oak Harbor","lat":48.3518,"lon":-122.656},"NYG":{"name":"Quantico Marine Corps Airfield / Turner Field","city":"Quantico","lat":38.5017,"lon":-77.3053},"YUM":{"name":"Yuma International Airport / Marine Corps Air Station Yuma","city":"Yuma","lat":32.6509,"lon":-114.6094},"NZY":{"name":"North Island Naval Air Station-Halsey Field","city":"San Diego","lat":32.6992,"lon":-117.215},"OAJ":{"name":"Albert J Ellis Airport","city":"Richlands","lat":34.8292,"lon":-77.6121},"OAK":{"name":"San Francisco Bay Oakland International Airport","city":"Oakland","lat":37.7201,"lon":-122.2212},"OFF":{"name":"Offutt Air Force Base","city":"Omaha","lat":41.1193,"lon":-95.9085},"OFK":{"name":"Karl Stefan Memorial Airport","city":"Norfolk","lat":41.9855,"lon":-97.4351},"OGB":{"name":"Orangeburg Municipal Airport","city":"Orangeburg","lat":33.4568,"lon":-80.8595},"OGD":{"name":"Ogden Hinckley Airport","city":"Ogden","lat":41.1959,"lon":-112.012},"OGS":{"name":"Ogdensburg International Airport","city":"Ogdensburg","lat":44.6819,"lon":-75.4655},"OCN":{"name":"Oceanside Municipal Airport","city":"Oceanside","lat":33.2179,"lon":-117.3517},"OKC":{"name":"OKC Will Rogers World Airport","city":"Oklahoma City","lat":35.3934,"lon":-97.5982},"OLF":{"name":"L M Clayton Airport","city":"Wolf Point","lat":48.0945,"lon":-105.575},"OLM":{"name":"Olympia Regional Airport","city":"Olympia","lat":46.9694,"lon":-122.903},"OLS":{"name":"Nogales International Airport","city":"Nogales","lat":31.4177,"lon":-110.848},"OLU":{"name":"Columbus Municipal Airport","city":"Columbus","lat":41.4481,"lon":-97.3402},"OMA":{"name":"Eppley Airfield","city":"Omaha","lat":41.3032,"lon":-95.8941},"ONO":{"name":"Ontario Municipal Airport","city":"Oregon","lat":44.0198,"lon":-117.0133},"ONP":{"name":"Newport Municipal Airport","city":"Newport","lat":44.5804,"lon":-124.058},"ONT":{"name":"Ontario International Airport","city":"Ontario","lat":34.056,"lon":-117.601},"OPF":{"name":"Miami-Opa Locka Executive Airport","city":"Miami","lat":25.907,"lon":-80.2784},"NCO":{"name":"Quonset State Airport","city":"North Kingstown","lat":41.5971,"lon":-71.4121},"ORD":{"name":"Chicago O'Hare International Airport","city":"Chicago","lat":41.9786,"lon":-87.9048},"ORF":{"name":"Norfolk International Airport","city":"Norfolk","lat":36.8953,"lon":-76.201},"ORH":{"name":"Worcester Regional Airport","city":"Worcester","lat":42.2673,"lon":-71.8757},"ORL":{"name":"Orlando Executive Airport","city":"Orlando","lat":28.5455,"lon":-81.3329},"ESD":{"name":"Orcas Island Airport","city":"Eastsound","lat":48.7082,"lon":-122.91},"OSH":{"name":"Wittman Regional Airport","city":"Oshkosh","lat":43.9844,"lon":-88.557},"OSU":{"name":"The Ohio State University Airport - Don Scott Field","city":"Columbus","lat":40.0798,"lon":-83.073},"OTH":{"name":"Southwest Oregon Regional Airport","city":"North Bend","lat":43.4171,"lon":-124.246},"OTM":{"name":"Ottumwa Regional Airport","city":"Ottumwa","lat":41.1064,"lon":-92.4498},"OWB":{"name":"Owensboro Daviess County Airport","city":"Owensboro","lat":37.7401,"lon":-87.1668},"OWD":{"name":"Norwood Memorial Airport","city":"Norwood","lat":42.1905,"lon":-71.1729},"OCE":{"name":"Ocean City Municipal Airport","city":"Ocean City","lat":38.3104,"lon":-75.124},"OXR":{"name":"Oxnard Airport","city":"Oxnard","lat":34.2008,"lon":-119.207},"OZR":{"name":"Cairns AAF (Fort Rucker) Air Field","city":"Fort Rucker/Ozark","lat":31.2757,"lon":-85.7134},"PAE":{"name":"Seattle Paine Field International Airport","city":"Everett","lat":47.9063,"lon":-122.282},"PAH":{"name":"Barkley Regional Airport","city":"Paducah","lat":37.0608,"lon":-88.7738},"PAM":{"name":"Tyndall Air Force Base","city":"Panama City","lat":30.0696,"lon":-85.5754},"PAO":{"name":"Palo Alto Airport","city":"Palo Alto","lat":37.4611,"lon":-122.115},"PBF":{"name":"Pine Bluff Regional Airport, Grider Field","city":"Pine Bluff","lat":34.1741,"lon":-91.9356},"PBG":{"name":"Plattsburgh International Airport","city":"Plattsburgh","lat":44.6509,"lon":-73.4681},"PBI":{"name":"Palm Beach International Airport","city":"West Palm Beach","lat":26.6832,"lon":-80.0956},"PDK":{"name":"DeKalb Peachtree Airport","city":"Atlanta","lat":33.8763,"lon":-84.3021},"PDT":{"name":"Eastern Oregon Regional Airport at Pendleton","city":"Pendleton","lat":45.6951,"lon":-118.841},"PDX":{"name":"Portland International Airport","city":"Portland","lat":45.5887,"lon":-122.598},"PGA":{"name":"Page Municipal Airport","city":"Page","lat":36.9242,"lon":-111.4477},"PGD":{"name":"Punta Gorda Airport","city":"Punta Gorda","lat":26.9202,"lon":-81.9905},"PGV":{"name":"Pitt-Greenville Airport","city":"Greenville","lat":35.6355,"lon":-77.3843},"PHF":{"name":"Newport News Williamsburg International Airport","city":"Newport News","lat":37.1319,"lon":-76.493},"PHL":{"name":"Philadelphia International Airport","city":"Philadelphia","lat":39.8719,"lon":-75.2411},"PHX":{"name":"Phoenix Sky Harbor International Airport","city":"Phoenix","lat":33.4353,"lon":-112.0059},"PIA":{"name":"General Wayne A. Downing Peoria International Airport","city":"Peoria","lat":40.6638,"lon":-89.6926},"PIB":{"name":"Hattiesburg Laurel Regional Airport","city":"Moselle","lat":31.4671,"lon":-89.3371},"PIE":{"name":"St. Petersburg Clearwater International Airport","city":"Pinellas Park","lat":27.9102,"lon":-82.6874},"PIH":{"name":"Pocatello Regional Airport","city":"Pocatello","lat":42.9098,"lon":-112.596},"PIR":{"name":"Pierre Regional Airport","city":"Pierre","lat":44.3827,"lon":-100.286},"PIT":{"name":"Pittsburgh International Airport","city":"Pittsburgh","lat":40.4915,"lon":-80.2329},"PKB":{"name":"Mid Ohio Valley Regional Airport","city":"Parkersburg (Williamstown)","lat":39.3451,"lon":-81.4392},"PLN":{"name":"Pellston Regional Airport of Emmet County Airport","city":"Pellston","lat":45.5709,"lon":-84.7967},"PMD":{"name":"Palmdale Regional Airport / USAF Plant 42 Airport","city":"Palmdale","lat":34.6294,"lon":-118.085},"PWY":{"name":"Ralph Wenz Field","city":"Pinedale","lat":42.7955,"lon":-109.807},"PNC":{"name":"Ponca City Regional Airport","city":"Ponca City","lat":36.732,"lon":-97.0998},"PNE":{"name":"Northeast Philadelphia Airport","city":"Philadelphia","lat":40.0824,"lon":-75.0106},"PNS":{"name":"Pensacola International Airport","city":"Pensacola","lat":30.4727,"lon":-87.1866},"POB":{"name":"Pope Field","city":"Fort Bragg","lat":35.1709,"lon":-79.0145},"POE":{"name":"Polk Army Air Field","city":"Fort Polk","lat":31.0448,"lon":-93.1917},"POU":{"name":"Dutchess County Airport","city":"Poughkeepsie","lat":41.6266,"lon":-73.8842},"PQI":{"name":"Presque Isle International Airport","city":"Presque Isle","lat":46.689,"lon":-68.0448},"PRB":{"name":"Paso Robles Municipal Airport","city":"Paso Robles","lat":35.6729,"lon":-120.627},"PRC":{"name":"Prescott Regional Airport - Ernest A. Love Field","city":"Prescott","lat":34.6535,"lon":-112.4199},"PRX":{"name":"Cox Field","city":"Paris","lat":33.6366,"lon":-95.4508},"PSC":{"name":"Tri Cities Airport","city":"Pasco","lat":46.2647,"lon":-119.119},"PSM":{"name":"Portsmouth International Airport at Pease","city":"Portsmouth","lat":43.0779,"lon":-70.8233},"PSP":{"name":"Palm Springs International Airport","city":"Palm Springs","lat":33.8297,"lon":-116.507},"PTK":{"name":"Oakland County International Airport","city":"Pontiac","lat":42.6655,"lon":-83.4201},"PUB":{"name":"Pueblo Memorial Airport","city":"Pueblo","lat":38.2891,"lon":-104.497},"PUW":{"name":"Pullman-Moscow Regional Airport","city":"Pullman","lat":46.7416,"lon":-117.1116},"PVD":{"name":"Rhode Island T. F. Green International Airport","city":"Providence/Warwick","lat":41.725,"lon":-71.4257},"PVU":{"name":"Provo Municipal Airport","city":"Provo","lat":40.2189,"lon":-111.7224},"PWK":{"name":"Chicago Executive Airport","city":"Chicago/Prospect Heights/Wheeling","lat":42.1142,"lon":-87.9015},"PWM":{"name":"Portland International Jetport","city":"Portland","lat":43.6462,"lon":-70.3093},"PWT":{"name":"Bremerton National Airport","city":"Bremerton","lat":47.4902,"lon":-122.765},"RAL":{"name":"Riverside Municipal Airport","city":"Riverside","lat":33.9519,"lon":-117.445},"RAP":{"name":"Rapid City Regional Airport","city":"Rapid City","lat":44.0453,"lon":-103.057},"RBL":{"name":"Red Bluff Municipal Airport","city":"Red Bluff","lat":40.1507,"lon":-122.252},"RCA":{"name":"Ellsworth Air Force Base","city":"Rapid City","lat":44.145,"lon":-103.104},"RDD":{"name":"Redding Municipal Airport","city":"Redding","lat":40.509,"lon":-122.293},"RDG":{"name":"Reading Regional Airport (Carl A Spaatz Field)","city":"Reading","lat":40.3785,"lon":-75.9652},"RDM":{"name":"Roberts Field","city":"Redmond","lat":44.2541,"lon":-121.15},"RDR":{"name":"Grand Forks Air Force Base","city":"Grand Forks","lat":47.9611,"lon":-97.4012},"RDU":{"name":"Raleigh-Durham International Airport","city":"Raleigh/Durham","lat":35.8787,"lon":-78.7873},"RFD":{"name":"Chicago Rockford International Airport","city":"Chicago/Rockford","lat":42.1954,"lon":-89.0972},"RHI":{"name":"Rhinelander Oneida County Airport","city":"Rhinelander","lat":45.6312,"lon":-89.4675},"RIC":{"name":"Richmond International Airport","city":"Richmond","lat":37.5052,"lon":-77.3197},"RIL":{"name":"Garfield County Regional Airport","city":"Rifle","lat":39.5263,"lon":-107.727},"RIV":{"name":"March Air Reserve Base","city":"Riverside","lat":33.8807,"lon":-117.259},"RIW":{"name":"Central Wyoming Regional Airport","city":"Riverton","lat":43.0642,"lon":-108.46},"RKD":{"name":"Knox County Regional Airport","city":"Rockland","lat":44.0601,"lon":-69.0992},"RKS":{"name":"Southwest Wyoming Regional Airport","city":"Rock Springs","lat":41.5942,"lon":-109.065},"RME":{"name":"Griffiss International Airport","city":"Rome","lat":43.2338,"lon":-75.407},"RMG":{"name":"Richard B Russell Airport","city":"Rome","lat":34.3506,"lon":-85.158},"RND":{"name":"Randolph Air Force Base","city":"Universal City","lat":29.5297,"lon":-98.2789},"RNH":{"name":"New Richmond Regional Airport","city":"New Richmond","lat":45.1483,"lon":-92.5381},"RNO":{"name":"Reno Tahoe International Airport","city":"Reno","lat":39.4991,"lon":-119.768},"ROA":{"name":"Roanoke\u2013Blacksburg Regional Airport","city":"Roanoke","lat":37.3255,"lon":-79.9754},"ROC":{"name":"Frederick Douglass Greater Rochester International Airport","city":"Rochester","lat":43.1189,"lon":-77.6724},"ROW":{"name":"Roswell Air Center Airport","city":"Roswell","lat":33.3016,"lon":-104.531},"RSL":{"name":"Russell Municipal Airport","city":"Russell","lat":38.8721,"lon":-98.8118},"RST":{"name":"Rochester International Airport","city":"Rochester","lat":43.9083,"lon":-92.5},"RSW":{"name":"Southwest Florida International Airport","city":"Fort Myers","lat":26.5347,"lon":-81.7528},"RUT":{"name":"Rutland - Southern Vermont Regional Airport","city":"Rutland","lat":43.5294,"lon":-72.9496},"RVS":{"name":"Tulsa Riverside Airport","city":"Tulsa","lat":36.0396,"lon":-95.9846},"RWF":{"name":"Redwood Falls Municipal Airport","city":"Redwood Falls","lat":44.5472,"lon":-95.0823},"RWI":{"name":"Rocky Mount Wilson Regional Airport","city":"Rocky Mount","lat":35.8563,"lon":-77.8919},"RWL":{"name":"Rawlins Municipal Airport/Harvey Field","city":"Rawlins","lat":41.8056,"lon":-107.2},"SAC":{"name":"Sacramento Executive Airport","city":"Sacramento","lat":38.5125,"lon":-121.493},"SAF":{"name":"Santa Fe Municipal Airport","city":"Santa Fe","lat":35.6171,"lon":-106.089},"SAN":{"name":"San Diego International Airport","city":"San Diego","lat":32.7336,"lon":-117.19},"SAT":{"name":"San Antonio International Airport","city":"San Antonio","lat":29.5337,"lon":-98.4698},"SAV":{"name":"Savannah Hilton Head International Airport","city":"Savannah","lat":32.1266,"lon":-81.2},"MQT":{"name":"Marquette/Sawyer International Airport","city":"Gwinn","lat":46.3515,"lon":-87.3959},"SBA":{"name":"Santa Barbara Municipal Airport","city":"Santa Barbara","lat":34.4262,"lon":-119.84},"SBD":{"name":"San Bernardino International Airport","city":"San Bernardino","lat":34.0967,"lon":-117.2366},"SBN":{"name":"South Bend International Airport","city":"South Bend","lat":41.7083,"lon":-86.3169},"SBP":{"name":"San Luis County Regional Airport","city":"San Luis Obispo","lat":35.2368,"lon":-120.642},"SBY":{"name":"Salisbury Ocean City Wicomico Regional Airport","city":"Salisbury","lat":38.3405,"lon":-75.5103},"SCH":{"name":"Schenectady County Airport","city":"Schenectady","lat":42.8525,"lon":-73.9289},"SCK":{"name":"Stockton Metropolitan Airport","city":"Stockton","lat":37.8933,"lon":-121.2381},"SDF":{"name":"Louisville Muhammad Ali International Airport","city":"Louisville","lat":38.1706,"lon":-85.7351},"SDM":{"name":"Brown Field Municipal Airport","city":"San Diego","lat":32.5726,"lon":-116.98},"SDY":{"name":"Sidney - Richland Regional Airport","city":"Sidney","lat":47.7051,"lon":-104.1944},"SEA":{"name":"Seattle\u2013Tacoma International Airport","city":"Seattle","lat":47.4479,"lon":-122.3103},"SFB":{"name":"Orlando Sanford International Airport","city":"Orlando","lat":28.7743,"lon":-81.2346},"SFF":{"name":"Felts Field","city":"Spokane","lat":47.6829,"lon":-117.3219},"SFO":{"name":"San Francisco International Airport","city":"San Francisco","lat":37.6198,"lon":-122.3748},"SGF":{"name":"Springfield Branson National Airport","city":"Springfield","lat":37.245,"lon":-93.3886},"SGH":{"name":"Springfield-Beckley Municipal Airport","city":"Springfield","lat":39.8403,"lon":-83.8402},"UST":{"name":"Northeast Florida Regional Airport","city":"St Augustine","lat":29.9592,"lon":-81.3398},"SGR":{"name":"Sugar Land Regional Airport","city":"Houston","lat":29.6223,"lon":-95.6565},"SGU":{"name":"St George Regional Airport","city":"St George","lat":37.0364,"lon":-113.5103},"SHD":{"name":"Shenandoah Valley Regional Airport","city":"Weyers Cave","lat":38.2638,"lon":-78.8964},"SHR":{"name":"Sheridan County Airport","city":"Sheridan","lat":44.7692,"lon":-106.98},"SHV":{"name":"Shreveport Regional Airport","city":"Shreveport","lat":32.4466,"lon":-93.8256},"SJC":{"name":"Norman Y. Mineta San Jose International Airport","city":"San Jose","lat":37.3625,"lon":-121.9292},"SJT":{"name":"San Angelo Regional Mathis Field","city":"San Angelo","lat":31.3577,"lon":-100.496},"SKA":{"name":"Fairchild Air Force Base","city":"Spokane","lat":47.6151,"lon":-117.656},"SKF":{"name":"Lackland Air Force Base","city":"San Antonio","lat":29.3842,"lon":-98.5811},"TSM":{"name":"Taos Regional Airport","city":"Taos","lat":36.4525,"lon":-105.6775},"SLC":{"name":"Salt Lake City International Airport","city":"Salt Lake City","lat":40.7889,"lon":-111.9799},"SLE":{"name":"Salem-Willamette Valley Airport/McNary Field","city":"Salem","lat":44.9095,"lon":-123.003},"SLK":{"name":"Adirondack Regional Airport","city":"Saranac Lake","lat":44.3869,"lon":-74.2046},"SLN":{"name":"Salina Municipal Airport","city":"Salina","lat":38.791,"lon":-97.6522},"SME":{"name":"Lake Cumberland Regional Airport","city":"Somerset","lat":37.0534,"lon":-84.6159},"SMF":{"name":"Sacramento International Airport","city":"Sacramento","lat":38.6954,"lon":-121.591},"SMN":{"name":"Lemhi County Airport","city":"Salmon","lat":45.1222,"lon":-113.882},"SMO":{"name":"Santa Monica Municipal Airport","city":"Santa Monica","lat":34.0158,"lon":-118.451},"SMX":{"name":"Santa Maria Public Airport Captain G Allan Hancock Field","city":"Santa Maria","lat":34.8989,"lon":-120.457},"SNA":{"name":"John Wayne Orange County International Airport","city":"Santa Ana","lat":33.6751,"lon":-117.8693},"SNS":{"name":"Salinas Municipal Airport","city":"Salinas","lat":36.6628,"lon":-121.606},"SNY":{"name":"Sidney Municipal Airport Lloyd W Carr Field","city":"Sidney","lat":41.1013,"lon":-102.985},"SOW":{"name":"Show Low Regional Airport","city":"Show Low","lat":34.2641,"lon":-110.0071},"SPI":{"name":"Abraham Lincoln Capital Airport","city":"Springfield","lat":39.8441,"lon":-89.6779},"SPS":{"name":"Wichita Falls Municipal Airport / Sheppard Air Force Base","city":"Wichita Falls","lat":33.9888,"lon":-98.4919},"SQL":{"name":"San Carlos Airport","city":"San Carlos","lat":37.5131,"lon":-122.2508},"SRQ":{"name":"Sarasota Bradenton International Airport","city":"Sarasota/Bradenton","lat":27.3946,"lon":-82.5544},"RUI":{"name":"Sierra Blanca Regional Airport","city":"Alto","lat":33.4628,"lon":-105.535},"SSC":{"name":"Shaw Air Force Base","city":"Sumter","lat":33.9727,"lon":-80.4706},"SSF":{"name":"Stinson Municipal Airport","city":"San Antonio","lat":29.337,"lon":-98.4711},"SSI":{"name":"St Simons Island Airport","city":"St Simons Island","lat":31.1518,"lon":-81.3913},"STC":{"name":"Saint Cloud Regional Airport","city":"Saint Cloud","lat":45.5466,"lon":-94.0599},"STJ":{"name":"Rosecrans Memorial Airport","city":"St Joseph","lat":39.7719,"lon":-94.9097},"STL":{"name":"St. Louis Lambert International Airport","city":"St Louis","lat":38.7487,"lon":-90.37},"STP":{"name":"Saint Paul Downtown Holman Field","city":"Saint Paul","lat":44.9348,"lon":-93.06},"STS":{"name":"Charles M. Schulz Sonoma County Airport","city":"Santa Rosa","lat":38.509,"lon":-122.813},"SUN":{"name":"Friedman Memorial Airport","city":"Hailey","lat":43.5044,"lon":-114.296},"SUS":{"name":"Spirit of St Louis Airport","city":"St Louis","lat":38.6621,"lon":-90.652},"SUU":{"name":"Travis Air Force Base","city":"Fairfield","lat":38.2627,"lon":-121.927},"SUX":{"name":"Sioux Gateway Airport / Brigadier General Bud Day Field","city":"Sioux City","lat":42.3976,"lon":-96.3822},"SVC":{"name":"Grant County Airport","city":"Silver City","lat":32.6367,"lon":-108.1547},"SVN":{"name":"Hunter Army Air Field","city":"Savannah","lat":32.01,"lon":-81.1457},"SWF":{"name":"New York Stewart International Airport","city":"Newburgh","lat":41.5042,"lon":-74.1089},"SWO":{"name":"Stillwater Regional Airport","city":"Stillwater","lat":36.1621,"lon":-97.0856},"SYR":{"name":"Syracuse Hancock International Airport","city":"Syracuse","lat":43.1112,"lon":-76.1063},"SZL":{"name":"Whiteman Air Force Base","city":"Knob Noster","lat":38.7303,"lon":-93.5479},"TBN":{"name":"Waynesville-St. Robert Regional Airport-Forney Field","city":"Fort Leonard Wood","lat":37.7416,"lon":-92.1407},"TCC":{"name":"Tucumcari Municipal Airport","city":"Tucumcari","lat":35.1828,"lon":-103.603},"TCL":{"name":"Tuscaloosa National Airport","city":"Tuscaloosa","lat":33.2206,"lon":-87.6114},"TCM":{"name":"McChord Air Force Base","city":"Tacoma","lat":47.1377,"lon":-122.476},"TCS":{"name":"Truth or Consequences Municipal Airport","city":"Truth or Consequences","lat":33.2369,"lon":-107.272},"TEB":{"name":"Teterboro Airport","city":"Teterboro","lat":40.8501,"lon":-74.0608},"TEX":{"name":"Telluride Regional Airport","city":"Telluride","lat":37.9538,"lon":-107.908},"TIK":{"name":"Tinker Air Force Base","city":"Oklahoma City","lat":35.4147,"lon":-97.3866},"TIW":{"name":"Tacoma Narrows Airport","city":"Tacoma","lat":47.2674,"lon":-122.5773},"TIX":{"name":"Space Coast Regional Airport","city":"Titusville","lat":28.5148,"lon":-80.7992},"TLH":{"name":"Tallahassee International Airport","city":"Tallahassee","lat":30.4012,"lon":-84.3543},"TMB":{"name":"Miami Executive Airport","city":"Miami","lat":25.6479,"lon":-80.4328},"TOI":{"name":"Troy Municipal Airport at N Kenneth Campbell Field","city":"Troy","lat":31.8604,"lon":-86.0121},"TOL":{"name":"Eugene F. Kranz Toledo Express Airport","city":"Toledo","lat":41.5868,"lon":-83.8078},"TOP":{"name":"Philip Billard Municipal Airport","city":"Topeka","lat":39.0699,"lon":-95.6226},"TPA":{"name":"Tampa International Airport","city":"Tampa","lat":27.9755,"lon":-82.5332},"TPH":{"name":"Tonopah Airport","city":"Tonopah","lat":38.0602,"lon":-117.087},"TPL":{"name":"Draughon Miller Central Texas Regional Airport","city":"Temple","lat":31.1525,"lon":-97.4078},"TRI":{"name":"Tri-Cities Regional TN/VA Airport","city":"Blountville","lat":36.4752,"lon":-82.4074},"TKF":{"name":"Truckee Tahoe Airport","city":"Truckee","lat":39.3186,"lon":-120.1406},"TRM":{"name":"Jacqueline Cochran Regional Airport","city":"Palm Springs","lat":33.6267,"lon":-116.16},"TTD":{"name":"Portland Troutdale Airport","city":"Portland","lat":45.5494,"lon":-122.401},"TTN":{"name":"Trenton Mercer Airport","city":"Ewing Township","lat":40.2767,"lon":-74.8135},"TUL":{"name":"Tulsa International Airport","city":"Tulsa","lat":36.1971,"lon":-95.8862},"TUP":{"name":"Tupelo Regional Airport","city":"Tupelo","lat":34.2681,"lon":-88.7699},"TUS":{"name":"Tucson International Airport","city":"Tucson","lat":32.115,"lon":-110.9381},"TVC":{"name":"Cherry Capital Airport","city":"Traverse City","lat":44.7414,"lon":-85.5822},"TVF":{"name":"Thief River Falls Regional Airport","city":"Thief River Falls","lat":48.0657,"lon":-96.185},"TVL":{"name":"Lake Tahoe Airport","city":"South Lake Tahoe","lat":38.8939,"lon":-119.995},"TWF":{"name":"Joslin Field Magic Valley Regional Airport","city":"Twin Falls","lat":42.4818,"lon":-114.488},"TXK":{"name":"Texarkana Regional Airport (Webb Field)","city":"Texarkana","lat":33.4537,"lon":-93.991},"TYR":{"name":"Tyler Pounds Regional Airport","city":"Tyler","lat":32.3541,"lon":-95.4024},"TYS":{"name":"McGhee Tyson Airport","city":"Knoxville/Maryville","lat":35.811,"lon":-83.994},"UIN":{"name":"Quincy Regional Airport Baldwin Field","city":"Quincy","lat":39.9427,"lon":-91.1946},"UKI":{"name":"Ukiah Municipal Airport","city":"Ukiah","lat":39.126,"lon":-123.201},"SCE":{"name":"State College Regional Airport","city":"State College","lat":40.8494,"lon":-77.8485},"UOX":{"name":"University Oxford Airport","city":"Oxford","lat":34.3843,"lon":-89.5368},"HTV":{"name":"Huntsville Regional Airport","city":"Huntsville","lat":30.7469,"lon":-95.5872},"NPT":{"name":"Newport State Airport","city":"Newport","lat":41.5322,"lon":-71.281},"VAD":{"name":"Moody Air Force Base","city":"Valdosta","lat":30.9678,"lon":-83.193},"VBG":{"name":"Vandenberg Space Force Base","city":"Lompoc","lat":34.7373,"lon":-120.584},"VCT":{"name":"Victoria Regional Airport","city":"Victoria","lat":28.8526,"lon":-96.9185},"VEL":{"name":"Vernal Regional Airport","city":"Vernal","lat":40.4362,"lon":-109.5117},"VGT":{"name":"North Las Vegas Airport","city":"Las Vegas","lat":36.2091,"lon":-115.194},"VIS":{"name":"Visalia Municipal Airport","city":"Visalia","lat":36.3187,"lon":-119.393},"VLD":{"name":"Valdosta Regional Airport","city":"Valdosta","lat":30.7825,"lon":-83.2767},"VNY":{"name":"Van Nuys Airport","city":"Van Nuys","lat":34.2098,"lon":-118.49},"VOK":{"name":"Volk Field","city":"Camp Douglas","lat":43.939,"lon":-90.2534},"VPS":{"name":"Destin-Fort Walton Beach Airport","city":"Valparaiso","lat":30.4813,"lon":-86.5158},"VPZ":{"name":"Porter County Municipal Airport","city":"Valparaiso","lat":41.454,"lon":-87.0071},"VQQ":{"name":"Cecil Airport","city":"Jacksonville","lat":30.2187,"lon":-81.8767},"VRB":{"name":"Vero Beach Regional Airport","city":"Vero Beach","lat":27.6556,"lon":-80.4179},"VTN":{"name":"Miller Field","city":"Valentine","lat":42.8562,"lon":-100.5492},"WJF":{"name":"General William J Fox Airfield","city":"Lancaster","lat":34.7411,"lon":-118.219},"WMC":{"name":"Winnemucca Municipal Airport","city":"Winnemucca","lat":40.8966,"lon":-117.806},"WRB":{"name":"Robins Air Force Base","city":"Warner Robins","lat":32.6401,"lon":-83.5919},"WRI":{"name":"Mc Guire Air Force Base","city":"Wrightstown","lat":40.0156,"lon":-74.5917},"WRL":{"name":"Worland Municipal Airport","city":"Worland","lat":43.9657,"lon":-107.951},"WST":{"name":"Westerly State Airport","city":"Westerly","lat":41.3496,"lon":-71.8034},"WWD":{"name":"Cape May County Airport","city":"Wildwood","lat":39.0085,"lon":-74.9083},"WWR":{"name":"West Woodward Airport","city":"Woodward","lat":36.438,"lon":-99.5227},"WYS":{"name":"Yellowstone Airport","city":"West Yellowstone","lat":44.6884,"lon":-111.118},"XNA":{"name":"Northwest Arkansas National Airport","city":"Fayetteville/Springdale/Rogers","lat":36.2819,"lon":-94.3068},"XWA":{"name":"Williston Basin International Airport","city":"Williston","lat":48.2609,"lon":-103.7512},"YIP":{"name":"Willow Run Airport","city":"Detroit","lat":42.2379,"lon":-83.5304},"YKM":{"name":"Yakima Air Terminal McAllister Field","city":"Yakima","lat":46.5682,"lon":-120.544},"YKN":{"name":"Chan Gurney Municipal Airport","city":"Yankton","lat":42.9167,"lon":-97.3859},"YNG":{"name":"Youngstown Warren Regional Airport","city":"Youngstown/Warren","lat":41.2607,"lon":-80.6791},"ZZV":{"name":"Zanesville Municipal Airport","city":"Zanesville","lat":39.9444,"lon":-81.8921},"PAQ":{"name":"Warren \"Bud\" Woods Palmer Municipal Airport","city":"Palmer","lat":61.5949,"lon":-149.089},"BTI":{"name":"Barter Island Long Range Radar Station Airport","city":"Barter Island","lat":70.134,"lon":-143.582},"BET":{"name":"Bethel Airport","city":"Bethel","lat":60.7798,"lon":-161.838},"BIG":{"name":"Allen Army Airfield","city":"Delta Junction Ft Greely","lat":63.9945,"lon":-145.722},"BRW":{"name":"Wiley Post Will Rogers Memorial Airport","city":"Utqia\u0121vik","lat":71.2854,"lon":-156.766},"CDB":{"name":"Cold Bay Airport","city":"Cold Bay","lat":55.2079,"lon":-162.725},"CDV":{"name":"Merle K (Mudhole) Smith Airport","city":"Cordova","lat":60.4918,"lon":-145.478},"CZF":{"name":"Cape Romanzof LRRS Airport","city":"Cape Romanzof","lat":61.7803,"lon":-166.039},"DRG":{"name":"Deering Airport","city":"Deering","lat":66.0689,"lon":-162.7669},"ADK":{"name":"Adak Airport","city":"Adak","lat":51.8836,"lon":-176.6428},"DLG":{"name":"Dillingham Airport","city":"Dillingham","lat":59.0447,"lon":-158.505},"ADQ":{"name":"Kodiak Airport","city":"Kodiak","lat":57.75,"lon":-152.494},"DUT":{"name":"Tom Madsen (Dutch Harbor) Airport","city":"Unalaska","lat":53.8988,"lon":-166.545},"EDF":{"name":"Elmendorf Air Force Base","city":"Anchorage","lat":61.2517,"lon":-149.8071},"EHM":{"name":"Cape Newenham LRRS Airport","city":"Cape Newenham","lat":58.6464,"lon":-162.063},"EIL":{"name":"Eielson Air Force Base","city":"Fairbanks","lat":64.6657,"lon":-147.102},"EMK":{"name":"Emmonak Airport","city":"Emmonak","lat":62.7861,"lon":-164.491},"ENA":{"name":"Kenai Municipal Airport","city":"Kenai","lat":60.5709,"lon":-151.2452},"FAI":{"name":"Fairbanks International Airport","city":"Fairbanks","lat":64.8151,"lon":-147.856},"FBK":{"name":"Ladd Army Airfield","city":"Fairbanks","lat":64.8375,"lon":-147.614},"ABL":{"name":"Ambler Airport","city":"Ambler","lat":67.1055,"lon":-157.8553},"GAL":{"name":"Edward G. Pitka Sr Airport","city":"Galena","lat":64.7362,"lon":-156.937},"GKN":{"name":"Gulkana Airport","city":"Gulkana","lat":62.1559,"lon":-145.4547},"GAM":{"name":"Gambell Airport","city":"Gambell","lat":63.7677,"lon":-171.7333},"GST":{"name":"Gustavus Airport","city":"Gustavus","lat":58.4253,"lon":-135.707},"HCR":{"name":"Holy Cross Airport","city":"Holy Cross","lat":62.1883,"lon":-159.775},"HSL":{"name":"Huslia Airport","city":"Huslia","lat":65.6979,"lon":-156.351},"HNS":{"name":"Haines Airport","city":"Haines","lat":59.2439,"lon":-135.5239},"HOM":{"name":"Homer Airport","city":"Homer","lat":59.6445,"lon":-151.4792},"EGX":{"name":"Egegik Airport","city":"Egegik","lat":58.1844,"lon":-157.3749},"IAN":{"name":"Bob Baker Memorial Airport","city":"Kiana","lat":66.9761,"lon":-160.439},"ILI":{"name":"Iliamna Airport","city":"Iliamna","lat":59.7544,"lon":-154.911},"UTO":{"name":"Indian Mountain LRRS Airport","city":"Utopia Creek","lat":65.9928,"lon":-153.704},"JNU":{"name":"Juneau International Airport","city":"Juneau","lat":58.3549,"lon":-134.5744},"AKN":{"name":"King Salmon Airport","city":"King Salmon","lat":58.6778,"lon":-156.652},"AKP":{"name":"Anaktuvuk Pass Airport","city":"Anaktuvuk Pass","lat":68.1336,"lon":-151.743},"KTN":{"name":"Ketchikan International Airport","city":"Ketchikan","lat":55.3556,"lon":-131.714},"KLW":{"name":"Klawock Airport","city":"Klawock","lat":55.5792,"lon":-133.076},"LUR":{"name":"Cape Lisburne LRRS Airport","city":"Cape Lisburne","lat":68.8751,"lon":-166.11},"MCG":{"name":"McGrath Airport","city":"McGrath","lat":62.9529,"lon":-155.606},"MRI":{"name":"Merrill Field","city":"Anchorage","lat":61.2128,"lon":-149.844},"MYU":{"name":"Mekoryuk Airport","city":"Mekoryuk","lat":60.3723,"lon":-166.2698},"ANC":{"name":"Ted Stevens Anchorage International Airport","city":"Anchorage","lat":61.179,"lon":-149.9926},"ANI":{"name":"Aniak Airport","city":"Aniak","lat":61.5816,"lon":-159.543},"ENN":{"name":"Nenana Municipal Airport","city":"Nenana","lat":64.5488,"lon":-149.0745},"ANN":{"name":"Annette Island Airport","city":"Metlakatla","lat":55.0377,"lon":-131.5726},"ANV":{"name":"Anvik Airport","city":"Anvik","lat":62.6467,"lon":-160.191},"OME":{"name":"Nome Airport","city":"Nome","lat":64.5122,"lon":-165.445},"ORT":{"name":"Northway Airport","city":"Northway","lat":62.9613,"lon":-141.929},"OTZ":{"name":"Ralph Wien Memorial Airport","city":"Kotzebue","lat":66.8847,"lon":-162.599},"STG":{"name":"St George Airport","city":"St George","lat":56.5773,"lon":-169.6638},"KPC":{"name":"Port Clarence Coast Guard Station","city":"Port Clarence","lat":65.2537,"lon":-166.859},"PSG":{"name":"Petersburg James A Johnson Airport","city":"Petersburg","lat":56.8017,"lon":-132.945},"PTH":{"name":"Port Heiden Airport","city":"Port Heiden","lat":56.9579,"lon":-158.6302},"PTU":{"name":"Platinum Airport","city":"Platinum","lat":59.0177,"lon":-161.8279},"NUI":{"name":"Nuiqsut Airport","city":"Nuiqsut","lat":70.21,"lon":-151.006},"ARC":{"name":"Arctic Village Airport","city":"Arctic Village","lat":68.1147,"lon":-145.579},"RBY":{"name":"Ruby Airport","city":"Ruby","lat":64.7272,"lon":-155.47},"SVA":{"name":"Savoonga Airport","city":"Savoonga","lat":63.6864,"lon":-170.493},"SCC":{"name":"Deadhorse Airport","city":"Deadhorse","lat":70.1947,"lon":-148.465},"SDP":{"name":"Sand Point Airport","city":"Sand Point","lat":55.3139,"lon":-160.5221},"SIT":{"name":"Sitka Rocky Gutierrez Airport","city":"Sitka","lat":57.0471,"lon":-135.362},"SNP":{"name":"St Paul Island Airport","city":"St Paul Island","lat":57.1663,"lon":-170.2226},"SVW":{"name":"Sparrevohn LRRS Airport","city":"Sparrevohn","lat":61.0974,"lon":-155.574},"SXQ":{"name":"Soldotna Airport","city":"Soldotna","lat":60.4749,"lon":-151.0385},"SYA":{"name":"Eareckson Air Station","city":"Shemya","lat":52.7123,"lon":174.114},"TKA":{"name":"Talkeetna Airport","city":"Talkeetna","lat":62.3205,"lon":-150.094},"TLJ":{"name":"Tatalina LRRS Airport","city":"Takotna","lat":62.8944,"lon":-155.977},"ATK":{"name":"Atqasuk Edward Burnell Sr Memorial Airport","city":"Atqasuk","lat":70.467,"lon":-157.436},"UNK":{"name":"Unalakleet Airport","city":"Unalakleet","lat":63.8884,"lon":-160.799},"VDZ":{"name":"Valdez Pioneer Field","city":"Valdez","lat":61.1327,"lon":-146.2466},"SWD":{"name":"Seward Airport","city":"Seward","lat":60.1305,"lon":-149.4186},"WRG":{"name":"Wrangell Airport","city":"Wrangell","lat":56.4843,"lon":-132.37},"AIN":{"name":"Wainwright Airport","city":"Wainwright","lat":70.638,"lon":-159.995},"WWA":{"name":"Wasilla Airport","city":"Wasilla","lat":61.5717,"lon":-149.54},"YAK":{"name":"Yakutat Airport","city":"Yakutat","lat":59.5087,"lon":-139.6604},"FYU":{"name":"Fort Yukon Airport","city":"Fort Yukon","lat":66.5717,"lon":-145.25},"BKH":{"name":"Barking Sands Airport","city":"Kekaha","lat":22.0228,"lon":-159.785},"HNM":{"name":"Hana Airport","city":"Hana","lat":20.7956,"lon":-156.014},"JHM":{"name":"Kapalua Airport","city":"Lahaina","lat":20.9629,"lon":-156.673},"JRF":{"name":"Kalaeloa Airport","city":"Kapolei","lat":21.3074,"lon":-158.07},"KOA":{"name":"Ellison Onizuka Kona International Airport at Ke\u0101hole","city":"Kailua-Kona","lat":19.7388,"lon":-156.0456},"LIH":{"name":"Lihue Airport","city":"Lihue, Kauai","lat":21.9744,"lon":-159.3371},"MKK":{"name":"Molokai Airport","city":"Kaunakakai","lat":21.1529,"lon":-157.096},"MUE":{"name":"Waimea Kohala Airport","city":"Waimea (Kamuela)","lat":20.0013,"lon":-155.668},"NGF":{"name":"Kaneohe Bay MCAS (Marion E. Carl Field) Airport","city":"Kaneohe","lat":21.4505,"lon":-157.768},"HNL":{"name":"Daniel K. Inouye International Airport","city":"Honolulu, Oahu","lat":21.3184,"lon":-157.9257},"LNY":{"name":"Lanai Airport","city":"Lanai City","lat":20.7857,"lon":-156.9513},"OGG":{"name":"Kahului International Airport","city":"Kahului","lat":20.8963,"lon":-156.4318},"ITO":{"name":"Hilo International Airport","city":"Hilo","lat":19.7214,"lon":-155.0454},"PIZ":{"name":"Point Lay LRRS Airport","city":"Point Lay","lat":69.7329,"lon":-163.005}}